{
"type": "FeatureCollection",
"crs": { "type": "name", "properties": { "name": "urn:ogc:def:crs:OGC:1.3:CRS84" } },
                                                                                
"features": [
{ "type": "Feature", "properties": { "PHCode_Mun": "012801000", "Mun_Name": "ADAMS" }, "geometry": { "type": "Point", "coordinates": [ 120.919406, 18.453391 ] } },
{ "type": "Feature", "properties": { "PHCode_Mun": "012802000", "Mun_Name": "BACARRA" }, "geometry": { "type": "Point", "coordinates": [ 120.612894, 18.267248 ] } },
{ "type": "Feature", "properties": { "PHCode_Mun": "012803000", "Mun_Name": "BADOC" }, "geometry": { "type": "Point", "coordinates": [ 120.509019, 17.905964 ] } },
{ "type": "Feature", "properties": { "PHCode_Mun": "012804000", "Mun_Name": "BANGUI" }, "geometry": { "type": "Point", "coordinates": [ 120.749667, 18.489743 ] } },
{ "type": "Feature", "properties": { "PHCode_Mun": "012805000", "Mun_Name": "CITY OF BATAC" }, "geometry": { "type": "Point", "coordinates": [ 120.584225, 18.037747 ] } },
{ "type": "Feature", "properties": { "PHCode_Mun": "012806000", "Mun_Name": "BURGOS" }, "geometry": { "type": "Point", "coordinates": [ 120.648892, 18.480015 ] } },
{ "type": "Feature", "properties": { "PHCode_Mun": "012807000", "Mun_Name": "CARASI" }, "geometry": { "type": "Point", "coordinates": [ 120.865258, 18.218858 ] } },
{ "type": "Feature", "properties": { "PHCode_Mun": "012808000", "Mun_Name": "CURRIMAO" }, "geometry": { "type": "Point", "coordinates": [ 120.499527, 18.010574 ] } },
{ "type": "Feature", "properties": { "PHCode_Mun": "012809000", "Mun_Name": "DINGRAS" }, "geometry": { "type": "Point", "coordinates": [ 120.720653, 18.076618 ] } },
{ "type": "Feature", "properties": { "PHCode_Mun": "012810000", "Mun_Name": "DUMALNEG" }, "geometry": { "type": "Point", "coordinates": [ 120.83853, 18.476643 ] } },
{ "type": "Feature", "properties": { "PHCode_Mun": "012811000", "Mun_Name": "BANNA (ESPIRITU)" }, "geometry": { "type": "Point", "coordinates": [ 120.655304, 17.967413 ] } },
{ "type": "Feature", "properties": { "PHCode_Mun": "012812000", "Mun_Name": "LAOAG CITY (Capital)" }, "geometry": { "type": "Point", "coordinates": [ 120.577302, 18.195275 ] } },
{ "type": "Feature", "properties": { "PHCode_Mun": "012813000", "Mun_Name": "MARCOS" }, "geometry": { "type": "Point", "coordinates": [ 120.694674, 18.02501 ] } },
{ "type": "Feature", "properties": { "PHCode_Mun": "012814000", "Mun_Name": "NUEVA ERA" }, "geometry": { "type": "Point", "coordinates": [ 120.78104, 17.98186 ] } },
{ "type": "Feature", "properties": { "PHCode_Mun": "012815000", "Mun_Name": "PAGUDPUD" }, "geometry": { "type": "Point", "coordinates": [ 120.86304, 18.562597 ] } },
{ "type": "Feature", "properties": { "PHCode_Mun": "012816000", "Mun_Name": "PAOAY" }, "geometry": { "type": "Point", "coordinates": [ 120.518123, 18.083104 ] } },
{ "type": "Feature", "properties": { "PHCode_Mun": "012817000", "Mun_Name": "PASUQUIN" }, "geometry": { "type": "Point", "coordinates": [ 120.639112, 18.371235 ] } },
{ "type": "Feature", "properties": { "PHCode_Mun": "012818000", "Mun_Name": "PIDDIG" }, "geometry": { "type": "Point", "coordinates": [ 120.750193, 18.180459 ] } },
{ "type": "Feature", "properties": { "PHCode_Mun": "012819000", "Mun_Name": "PINILI" }, "geometry": { "type": "Point", "coordinates": [ 120.543269, 17.947981 ] } },
{ "type": "Feature", "properties": { "PHCode_Mun": "012820000", "Mun_Name": "SAN NICOLAS" }, "geometry": { "type": "Point", "coordinates": [ 120.594729, 18.14585 ] } },
{ "type": "Feature", "properties": { "PHCode_Mun": "012821000", "Mun_Name": "SARRAT" }, "geometry": { "type": "Point", "coordinates": [ 120.647348, 18.135017 ] } },
{ "type": "Feature", "properties": { "PHCode_Mun": "012822000", "Mun_Name": "SOLSONA" }, "geometry": { "type": "Point", "coordinates": [ 120.791876, 18.100997 ] } },
{ "type": "Feature", "properties": { "PHCode_Mun": "012823000", "Mun_Name": "VINTAR" }, "geometry": { "type": "Point", "coordinates": [ 120.7828, 18.328502 ] } },
{ "type": "Feature", "properties": { "PHCode_Mun": "012901000", "Mun_Name": "ALILEM" }, "geometry": { "type": "Point", "coordinates": [ 120.578443, 16.893472 ] } },
{ "type": "Feature", "properties": { "PHCode_Mun": "012902000", "Mun_Name": "BANAYOYO" }, "geometry": { "type": "Point", "coordinates": [ 120.493278, 17.245721 ] } },
{ "type": "Feature", "properties": { "PHCode_Mun": "012903000", "Mun_Name": "BANTAY" }, "geometry": { "type": "Point", "coordinates": [ 120.451913, 17.597964 ] } },
{ "type": "Feature", "properties": { "PHCode_Mun": "012904000", "Mun_Name": "BURGOS" }, "geometry": { "type": "Point", "coordinates": [ 120.514961, 17.313747 ] } },
{ "type": "Feature", "properties": { "PHCode_Mun": "012905000", "Mun_Name": "CABUGAO" }, "geometry": { "type": "Point", "coordinates": [ 120.495848, 17.787864 ] } },
{ "type": "Feature", "properties": { "PHCode_Mun": "012906000", "Mun_Name": "CITY OF CANDON" }, "geometry": { "type": "Point", "coordinates": [ 120.464711, 17.19326 ] } },
{ "type": "Feature", "properties": { "PHCode_Mun": "012907000", "Mun_Name": "CAOAYAN" }, "geometry": { "type": "Point", "coordinates": [ 120.390683, 17.534935 ] } },
{ "type": "Feature", "properties": { "PHCode_Mun": "012908000", "Mun_Name": "CERVANTES" }, "geometry": { "type": "Point", "coordinates": [ 120.707476, 16.989604 ] } },
{ "type": "Feature", "properties": { "PHCode_Mun": "012909000", "Mun_Name": "GALIMUYOD" }, "geometry": { "type": "Point", "coordinates": [ 120.513879, 17.188146 ] } },
{ "type": "Feature", "properties": { "PHCode_Mun": "012910000", "Mun_Name": "GREGORIO DEL PILAR (CONCEPCION)" }, "geometry": { "type": "Point", "coordinates": [ 120.611987, 17.152063 ] } },
{ "type": "Feature", "properties": { "PHCode_Mun": "012911000", "Mun_Name": "LIDLIDDA" }, "geometry": { "type": "Point", "coordinates": [ 120.532105, 17.258614 ] } },
{ "type": "Feature", "properties": { "PHCode_Mun": "012912000", "Mun_Name": "MAGSINGAL" }, "geometry": { "type": "Point", "coordinates": [ 120.451759, 17.682694 ] } },
{ "type": "Feature", "properties": { "PHCode_Mun": "012913000", "Mun_Name": "NAGBUKEL" }, "geometry": { "type": "Point", "coordinates": [ 120.551215, 17.440386 ] } },
{ "type": "Feature", "properties": { "PHCode_Mun": "012914000", "Mun_Name": "NARVACAN" }, "geometry": { "type": "Point", "coordinates": [ 120.500755, 17.447373 ] } },
{ "type": "Feature", "properties": { "PHCode_Mun": "012915000", "Mun_Name": "QUIRINO (ANGKAKI)" }, "geometry": { "type": "Point", "coordinates": [ 120.710828, 17.122586 ] } },
{ "type": "Feature", "properties": { "PHCode_Mun": "012916000", "Mun_Name": "SALCEDO (BAUGEN)" }, "geometry": { "type": "Point", "coordinates": [ 120.548806, 17.119573 ] } },
{ "type": "Feature", "properties": { "PHCode_Mun": "012917000", "Mun_Name": "SAN EMILIO" }, "geometry": { "type": "Point", "coordinates": [ 120.607879, 17.239859 ] } },
{ "type": "Feature", "properties": { "PHCode_Mun": "012918000", "Mun_Name": "SAN ESTEBAN" }, "geometry": { "type": "Point", "coordinates": [ 120.452722, 17.324828 ] } },
{ "type": "Feature", "properties": { "PHCode_Mun": "012919000", "Mun_Name": "SAN ILDEFONSO" }, "geometry": { "type": "Point", "coordinates": [ 120.405728, 17.619017 ] } },
{ "type": "Feature", "properties": { "PHCode_Mun": "012920000", "Mun_Name": "SAN JUAN (LAPOG)" }, "geometry": { "type": "Point", "coordinates": [ 120.478675, 17.732847 ] } },
{ "type": "Feature", "properties": { "PHCode_Mun": "012921000", "Mun_Name": "SAN VICENTE" }, "geometry": { "type": "Point", "coordinates": [ 120.367278, 17.611818 ] } },
{ "type": "Feature", "properties": { "PHCode_Mun": "012922000", "Mun_Name": "SANTA" }, "geometry": { "type": "Point", "coordinates": [ 120.44292, 17.518239 ] } },
{ "type": "Feature", "properties": { "PHCode_Mun": "012923000", "Mun_Name": "SANTA CATALINA" }, "geometry": { "type": "Point", "coordinates": [ 120.356487, 17.585873 ] } },
{ "type": "Feature", "properties": { "PHCode_Mun": "012924000", "Mun_Name": "SANTA CRUZ" }, "geometry": { "type": "Point", "coordinates": [ 120.482611, 17.056214 ] } },
{ "type": "Feature", "properties": { "PHCode_Mun": "012925000", "Mun_Name": "SANTA LUCIA" }, "geometry": { "type": "Point", "coordinates": [ 120.471003, 17.125585 ] } },
{ "type": "Feature", "properties": { "PHCode_Mun": "012926000", "Mun_Name": "SANTA MARIA" }, "geometry": { "type": "Point", "coordinates": [ 120.497143, 17.367212 ] } },
{ "type": "Feature", "properties": { "PHCode_Mun": "012927000", "Mun_Name": "SANTIAGO" }, "geometry": { "type": "Point", "coordinates": [ 120.448994, 17.273367 ] } },
{ "type": "Feature", "properties": { "PHCode_Mun": "012928000", "Mun_Name": "SANTO DOMINGO" }, "geometry": { "type": "Point", "coordinates": [ 120.420333, 17.644323 ] } },
{ "type": "Feature", "properties": { "PHCode_Mun": "012929000", "Mun_Name": "SIGAY" }, "geometry": { "type": "Point", "coordinates": [ 120.604519, 17.056306 ] } },
{ "type": "Feature", "properties": { "PHCode_Mun": "012930000", "Mun_Name": "SINAIT" }, "geometry": { "type": "Point", "coordinates": [ 120.48804, 17.859235 ] } },
{ "type": "Feature", "properties": { "PHCode_Mun": "012931000", "Mun_Name": "SUGPON" }, "geometry": { "type": "Point", "coordinates": [ 120.558896, 16.779484 ] } },
{ "type": "Feature", "properties": { "PHCode_Mun": "012932000", "Mun_Name": "SUYO" }, "geometry": { "type": "Point", "coordinates": [ 120.555712, 16.979013 ] } },
{ "type": "Feature", "properties": { "PHCode_Mun": "012933000", "Mun_Name": "TAGUDIN" }, "geometry": { "type": "Point", "coordinates": [ 120.462224, 16.937876 ] } },
{ "type": "Feature", "properties": { "PHCode_Mun": "012934000", "Mun_Name": "CITY OF VIGAN (Capital)" }, "geometry": { "type": "Point", "coordinates": [ 120.388002, 17.563055 ] } },
{ "type": "Feature", "properties": { "PHCode_Mun": "013301000", "Mun_Name": "AGOO" }, "geometry": { "type": "Point", "coordinates": [ 120.371493, 16.325943 ] } },
{ "type": "Feature", "properties": { "PHCode_Mun": "013302000", "Mun_Name": "ARINGAY" }, "geometry": { "type": "Point", "coordinates": [ 120.403874, 16.409674 ] } },
{ "type": "Feature", "properties": { "PHCode_Mun": "013303000", "Mun_Name": "BACNOTAN" }, "geometry": { "type": "Point", "coordinates": [ 120.373563, 16.743931 ] } },
{ "type": "Feature", "properties": { "PHCode_Mun": "013304000", "Mun_Name": "BAGULIN" }, "geometry": { "type": "Point", "coordinates": [ 120.474578, 16.60924 ] } },
{ "type": "Feature", "properties": { "PHCode_Mun": "013305000", "Mun_Name": "BALAOAN" }, "geometry": { "type": "Point", "coordinates": [ 120.40137, 16.805731 ] } },
{ "type": "Feature", "properties": { "PHCode_Mun": "013306000", "Mun_Name": "BANGAR" }, "geometry": { "type": "Point", "coordinates": [ 120.431614, 16.880007 ] } },
{ "type": "Feature", "properties": { "PHCode_Mun": "013307000", "Mun_Name": "BAUANG" }, "geometry": { "type": "Point", "coordinates": [ 120.34615, 16.513125 ] } },
{ "type": "Feature", "properties": { "PHCode_Mun": "013308000", "Mun_Name": "BURGOS" }, "geometry": { "type": "Point", "coordinates": [ 120.469578, 16.53189 ] } },
{ "type": "Feature", "properties": { "PHCode_Mun": "013309000", "Mun_Name": "CABA" }, "geometry": { "type": "Point", "coordinates": [ 120.377026, 16.439951 ] } },
{ "type": "Feature", "properties": { "PHCode_Mun": "013310000", "Mun_Name": "LUNA" }, "geometry": { "type": "Point", "coordinates": [ 120.376303, 16.839368 ] } },
{ "type": "Feature", "properties": { "PHCode_Mun": "013311000", "Mun_Name": "NAGUILIAN" }, "geometry": { "type": "Point", "coordinates": [ 120.414069, 16.5265 ] } },
{ "type": "Feature", "properties": { "PHCode_Mun": "013312000", "Mun_Name": "PUGO" }, "geometry": { "type": "Point", "coordinates": [ 120.481104, 16.313159 ] } },
{ "type": "Feature", "properties": { "PHCode_Mun": "013313000", "Mun_Name": "ROSARIO" }, "geometry": { "type": "Point", "coordinates": [ 120.458743, 16.244772 ] } },
{ "type": "Feature", "properties": { "PHCode_Mun": "013314000", "Mun_Name": "CITY OF SAN FERNANDO (Capital)" }, "geometry": { "type": "Point", "coordinates": [ 120.358158, 16.608495 ] } },
{ "type": "Feature", "properties": { "PHCode_Mun": "013315000", "Mun_Name": "SAN GABRIEL" }, "geometry": { "type": "Point", "coordinates": [ 120.469707, 16.684225 ] } },
{ "type": "Feature", "properties": { "PHCode_Mun": "013316000", "Mun_Name": "SAN JUAN" }, "geometry": { "type": "Point", "coordinates": [ 120.371398, 16.669875 ] } },
{ "type": "Feature", "properties": { "PHCode_Mun": "013317000", "Mun_Name": "SANTO TOMAS" }, "geometry": { "type": "Point", "coordinates": [ 120.398376, 16.273149 ] } },
{ "type": "Feature", "properties": { "PHCode_Mun": "013318000", "Mun_Name": "SANTOL" }, "geometry": { "type": "Point", "coordinates": [ 120.492329, 16.750479 ] } },
{ "type": "Feature", "properties": { "PHCode_Mun": "013319000", "Mun_Name": "SUDIPEN" }, "geometry": { "type": "Point", "coordinates": [ 120.491517, 16.84665 ] } },
{ "type": "Feature", "properties": { "PHCode_Mun": "013320000", "Mun_Name": "TUBAO" }, "geometry": { "type": "Point", "coordinates": [ 120.425806, 16.343641 ] } },
{ "type": "Feature", "properties": { "PHCode_Mun": "015501000", "Mun_Name": "AGNO" }, "geometry": { "type": "Point", "coordinates": [ 119.803838, 16.101514 ] } },
{ "type": "Feature", "properties": { "PHCode_Mun": "015502000", "Mun_Name": "AGUILAR" }, "geometry": { "type": "Point", "coordinates": [ 120.214606, 15.837412 ] } },
{ "type": "Feature", "properties": { "PHCode_Mun": "015503000", "Mun_Name": "CITY OF ALAMINOS" }, "geometry": { "type": "Point", "coordinates": [ 119.977937, 16.15186 ] } },
{ "type": "Feature", "properties": { "PHCode_Mun": "015504000", "Mun_Name": "ALCALA" }, "geometry": { "type": "Point", "coordinates": [ 120.527783, 15.836575 ] } },
{ "type": "Feature", "properties": { "PHCode_Mun": "015505000", "Mun_Name": "ANDA" }, "geometry": { "type": "Point", "coordinates": [ 119.976163, 16.293394 ] } },
{ "type": "Feature", "properties": { "PHCode_Mun": "015506000", "Mun_Name": "ASINGAN" }, "geometry": { "type": "Point", "coordinates": [ 120.653328, 15.995773 ] } },
{ "type": "Feature", "properties": { "PHCode_Mun": "015507000", "Mun_Name": "BALUNGAO" }, "geometry": { "type": "Point", "coordinates": [ 120.693835, 15.890048 ] } },
{ "type": "Feature", "properties": { "PHCode_Mun": "015508000", "Mun_Name": "BANI" }, "geometry": { "type": "Point", "coordinates": [ 119.85236, 16.20922 ] } },
{ "type": "Feature", "properties": { "PHCode_Mun": "015509000", "Mun_Name": "BASISTA" }, "geometry": { "type": "Point", "coordinates": [ 120.397167, 15.866112 ] } },
{ "type": "Feature", "properties": { "PHCode_Mun": "015510000", "Mun_Name": "BAUTISTA" }, "geometry": { "type": "Point", "coordinates": [ 120.510121, 15.79679 ] } },
{ "type": "Feature", "properties": { "PHCode_Mun": "015511000", "Mun_Name": "BAYAMBANG" }, "geometry": { "type": "Point", "coordinates": [ 120.443268, 15.78871 ] } },
{ "type": "Feature", "properties": { "PHCode_Mun": "015512000", "Mun_Name": "BINALONAN" }, "geometry": { "type": "Point", "coordinates": [ 120.595256, 16.057566 ] } },
{ "type": "Feature", "properties": { "PHCode_Mun": "015513000", "Mun_Name": "BINMALEY" }, "geometry": { "type": "Point", "coordinates": [ 120.289175, 16.006086 ] } },
{ "type": "Feature", "properties": { "PHCode_Mun": "015514000", "Mun_Name": "BOLINAO" }, "geometry": { "type": "Point", "coordinates": [ 119.871852, 16.32258 ] } },
{ "type": "Feature", "properties": { "PHCode_Mun": "015515000", "Mun_Name": "BUGALLON" }, "geometry": { "type": "Point", "coordinates": [ 120.175312, 15.922029 ] } },
{ "type": "Feature", "properties": { "PHCode_Mun": "015516000", "Mun_Name": "BURGOS" }, "geometry": { "type": "Point", "coordinates": [ 119.843432, 16.027521 ] } },
{ "type": "Feature", "properties": { "PHCode_Mun": "015517000", "Mun_Name": "CALASIAO" }, "geometry": { "type": "Point", "coordinates": [ 120.359568, 15.993454 ] } },
{ "type": "Feature", "properties": { "PHCode_Mun": "015518000", "Mun_Name": "DAGUPAN CITY" }, "geometry": { "type": "Point", "coordinates": [ 120.34492, 16.054136 ] } },
{ "type": "Feature", "properties": { "PHCode_Mun": "015519000", "Mun_Name": "DASOL" }, "geometry": { "type": "Point", "coordinates": [ 119.897827, 15.946593 ] } },
{ "type": "Feature", "properties": { "PHCode_Mun": "015520000", "Mun_Name": "INFANTA" }, "geometry": { "type": "Point", "coordinates": [ 120.008798, 15.865486 ] } },
{ "type": "Feature", "properties": { "PHCode_Mun": "015521000", "Mun_Name": "LABRADOR" }, "geometry": { "type": "Point", "coordinates": [ 120.115628, 15.997991 ] } },
{ "type": "Feature", "properties": { "PHCode_Mun": "015522000", "Mun_Name": "LINGAYEN (Capital)" }, "geometry": { "type": "Point", "coordinates": [ 120.221573, 16.002778 ] } },
{ "type": "Feature", "properties": { "PHCode_Mun": "015523000", "Mun_Name": "MABINI" }, "geometry": { "type": "Point", "coordinates": [ 119.981705, 16.013007 ] } },
{ "type": "Feature", "properties": { "PHCode_Mun": "015524000", "Mun_Name": "MALASIQUI" }, "geometry": { "type": "Point", "coordinates": [ 120.455289, 15.908589 ] } },
{ "type": "Feature", "properties": { "PHCode_Mun": "015525000", "Mun_Name": "MANAOAG" }, "geometry": { "type": "Point", "coordinates": [ 120.500619, 16.031303 ] } },
{ "type": "Feature", "properties": { "PHCode_Mun": "015526000", "Mun_Name": "MANGALDAN" }, "geometry": { "type": "Point", "coordinates": [ 120.400757, 16.061534 ] } },
{ "type": "Feature", "properties": { "PHCode_Mun": "015527000", "Mun_Name": "MANGATAREM" }, "geometry": { "type": "Point", "coordinates": [ 120.279579, 15.736145 ] } },
{ "type": "Feature", "properties": { "PHCode_Mun": "015528000", "Mun_Name": "MAPANDAN" }, "geometry": { "type": "Point", "coordinates": [ 120.455935, 16.020203 ] } },
{ "type": "Feature", "properties": { "PHCode_Mun": "015529000", "Mun_Name": "NATIVIDAD" }, "geometry": { "type": "Point", "coordinates": [ 120.835467, 16.047596 ] } },
{ "type": "Feature", "properties": { "PHCode_Mun": "015530000", "Mun_Name": "POZORRUBIO" }, "geometry": { "type": "Point", "coordinates": [ 120.528593, 16.112996 ] } },
{ "type": "Feature", "properties": { "PHCode_Mun": "015531000", "Mun_Name": "ROSALES" }, "geometry": { "type": "Point", "coordinates": [ 120.638006, 15.868519 ] } },
{ "type": "Feature", "properties": { "PHCode_Mun": "015532000", "Mun_Name": "SAN CARLOS CITY" }, "geometry": { "type": "Point", "coordinates": [ 120.327916, 15.907974 ] } },
{ "type": "Feature", "properties": { "PHCode_Mun": "015533000", "Mun_Name": "SAN FABIAN" }, "geometry": { "type": "Point", "coordinates": [ 120.435848, 16.14515 ] } },
{ "type": "Feature", "properties": { "PHCode_Mun": "015534000", "Mun_Name": "SAN JACINTO" }, "geometry": { "type": "Point", "coordinates": [ 120.457867, 16.086333 ] } },
{ "type": "Feature", "properties": { "PHCode_Mun": "015535000", "Mun_Name": "SAN MANUEL" }, "geometry": { "type": "Point", "coordinates": [ 120.670665, 16.103605 ] } },
{ "type": "Feature", "properties": { "PHCode_Mun": "015536000", "Mun_Name": "SAN NICOLAS" }, "geometry": { "type": "Point", "coordinates": [ 120.772462, 16.12437 ] } },
{ "type": "Feature", "properties": { "PHCode_Mun": "015537000", "Mun_Name": "SAN QUINTIN" }, "geometry": { "type": "Point", "coordinates": [ 120.823501, 15.98463 ] } },
{ "type": "Feature", "properties": { "PHCode_Mun": "015538000", "Mun_Name": "SANTA BARBARA" }, "geometry": { "type": "Point", "coordinates": [ 120.428156, 15.988468 ] } },
{ "type": "Feature", "properties": { "PHCode_Mun": "015539000", "Mun_Name": "SANTA MARIA" }, "geometry": { "type": "Point", "coordinates": [ 120.701348, 15.962734 ] } },
{ "type": "Feature", "properties": { "PHCode_Mun": "015540000", "Mun_Name": "SANTO TOMAS" }, "geometry": { "type": "Point", "coordinates": [ 120.578298, 15.865099 ] } },
{ "type": "Feature", "properties": { "PHCode_Mun": "015541000", "Mun_Name": "SISON" }, "geometry": { "type": "Point", "coordinates": [ 120.558148, 16.167551 ] } },
{ "type": "Feature", "properties": { "PHCode_Mun": "015542000", "Mun_Name": "SUAL" }, "geometry": { "type": "Point", "coordinates": [ 120.054376, 16.087261 ] } },
{ "type": "Feature", "properties": { "PHCode_Mun": "015543000", "Mun_Name": "TAYUG" }, "geometry": { "type": "Point", "coordinates": [ 120.744658, 16.012704 ] } },
{ "type": "Feature", "properties": { "PHCode_Mun": "015544000", "Mun_Name": "UMINGAN" }, "geometry": { "type": "Point", "coordinates": [ 120.816364, 15.902283 ] } },
{ "type": "Feature", "properties": { "PHCode_Mun": "015545000", "Mun_Name": "URBIZTONDO" }, "geometry": { "type": "Point", "coordinates": [ 120.352458, 15.825261 ] } },
{ "type": "Feature", "properties": { "PHCode_Mun": "015546000", "Mun_Name": "CITY OF URDANETA" }, "geometry": { "type": "Point", "coordinates": [ 120.559758, 15.970451 ] } },
{ "type": "Feature", "properties": { "PHCode_Mun": "015547000", "Mun_Name": "VILLASIS" }, "geometry": { "type": "Point", "coordinates": [ 120.565649, 15.908231 ] } },
{ "type": "Feature", "properties": { "PHCode_Mun": "015548000", "Mun_Name": "LAOAC" }, "geometry": { "type": "Point", "coordinates": [ 120.543437, 16.042623 ] } },
{ "type": "Feature", "properties": { "PHCode_Mun": "020901000", "Mun_Name": "BASCO (Capital)" }, "geometry": { "type": "Point", "coordinates": [ 121.992929, 20.458643 ] } },
{ "type": "Feature", "properties": { "PHCode_Mun": "020902000", "Mun_Name": "ITBAYAT" }, "geometry": { "type": "Point", "coordinates": [ 121.841241, 20.768649 ] } },
{ "type": "Feature", "properties": { "PHCode_Mun": "020903000", "Mun_Name": "IVANA" }, "geometry": { "type": "Point", "coordinates": [ 121.93073, 20.379262 ] } },
{ "type": "Feature", "properties": { "PHCode_Mun": "020904000", "Mun_Name": "MAHATAO" }, "geometry": { "type": "Point", "coordinates": [ 121.957662, 20.405363 ] } },
{ "type": "Feature", "properties": { "PHCode_Mun": "020905000", "Mun_Name": "SABTANG" }, "geometry": { "type": "Point", "coordinates": [ 121.851598, 20.311113 ] } },
{ "type": "Feature", "properties": { "PHCode_Mun": "020906000", "Mun_Name": "UYUGAN" }, "geometry": { "type": "Point", "coordinates": [ 121.951627, 20.368547 ] } },
{ "type": "Feature", "properties": { "PHCode_Mun": "021501000", "Mun_Name": "ABULUG" }, "geometry": { "type": "Point", "coordinates": [ 121.432527, 18.391182 ] } },
{ "type": "Feature", "properties": { "PHCode_Mun": "021502000", "Mun_Name": "ALCALA" }, "geometry": { "type": "Point", "coordinates": [ 121.674567, 17.915661 ] } },
{ "type": "Feature", "properties": { "PHCode_Mun": "021503000", "Mun_Name": "ALLACAPAN" }, "geometry": { "type": "Point", "coordinates": [ 121.544688, 18.199627 ] } },
{ "type": "Feature", "properties": { "PHCode_Mun": "021504000", "Mun_Name": "AMULUNG" }, "geometry": { "type": "Point", "coordinates": [ 121.69508, 17.812158 ] } },
{ "type": "Feature", "properties": { "PHCode_Mun": "021505000", "Mun_Name": "APARRI" }, "geometry": { "type": "Point", "coordinates": [ 121.614345, 18.332333 ] } },
{ "type": "Feature", "properties": { "PHCode_Mun": "021506000", "Mun_Name": "BAGGAO" }, "geometry": { "type": "Point", "coordinates": [ 121.971694, 17.922649 ] } },
{ "type": "Feature", "properties": { "PHCode_Mun": "021507000", "Mun_Name": "BALLESTEROS" }, "geometry": { "type": "Point", "coordinates": [ 121.505758, 18.351183 ] } },
{ "type": "Feature", "properties": { "PHCode_Mun": "021508000", "Mun_Name": "BUGUEY" }, "geometry": { "type": "Point", "coordinates": [ 121.806982, 18.242995 ] } },
{ "type": "Feature", "properties": { "PHCode_Mun": "021509000", "Mun_Name": "CALAYAN" }, "geometry": { "type": "Point", "coordinates": [ 121.482484, 19.291916 ] } },
{ "type": "Feature", "properties": { "PHCode_Mun": "021510000", "Mun_Name": "CAMALANIUGAN" }, "geometry": { "type": "Point", "coordinates": [ 121.689498, 18.269651 ] } },
{ "type": "Feature", "properties": { "PHCode_Mun": "021511000", "Mun_Name": "CLAVERIA" }, "geometry": { "type": "Point", "coordinates": [ 121.092917, 18.574558 ] } },
{ "type": "Feature", "properties": { "PHCode_Mun": "021512000", "Mun_Name": "ENRILE" }, "geometry": { "type": "Point", "coordinates": [ 121.695339, 17.548237 ] } },
{ "type": "Feature", "properties": { "PHCode_Mun": "021513000", "Mun_Name": "GATTARAN" }, "geometry": { "type": "Point", "coordinates": [ 121.880253, 18.052421 ] } },
{ "type": "Feature", "properties": { "PHCode_Mun": "021514000", "Mun_Name": "GONZAGA" }, "geometry": { "type": "Point", "coordinates": [ 122.123773, 18.250597 ] } },
{ "type": "Feature", "properties": { "PHCode_Mun": "021515000", "Mun_Name": "IGUIG" }, "geometry": { "type": "Point", "coordinates": [ 121.754772, 17.747325 ] } },
{ "type": "Feature", "properties": { "PHCode_Mun": "021516000", "Mun_Name": "LAL-LO" }, "geometry": { "type": "Point", "coordinates": [ 121.855362, 18.153941 ] } },
{ "type": "Feature", "properties": { "PHCode_Mun": "021517000", "Mun_Name": "LASAM" }, "geometry": { "type": "Point", "coordinates": [ 121.540079, 18.05902 ] } },
{ "type": "Feature", "properties": { "PHCode_Mun": "021518000", "Mun_Name": "PAMPLONA" }, "geometry": { "type": "Point", "coordinates": [ 121.327818, 18.444984 ] } },
{ "type": "Feature", "properties": { "PHCode_Mun": "021519000", "Mun_Name": "PEÑABLANCA" }, "geometry": { "type": "Point", "coordinates": [ 121.965959, 17.683704 ] } },
{ "type": "Feature", "properties": { "PHCode_Mun": "021520000", "Mun_Name": "PIAT" }, "geometry": { "type": "Point", "coordinates": [ 121.516989, 17.774168 ] } },
{ "type": "Feature", "properties": { "PHCode_Mun": "021521000", "Mun_Name": "RIZAL" }, "geometry": { "type": "Point", "coordinates": [ 121.392767, 17.913728 ] } },
{ "type": "Feature", "properties": { "PHCode_Mun": "021522000", "Mun_Name": "SANCHEZ-MIRA" }, "geometry": { "type": "Point", "coordinates": [ 121.216613, 18.538664 ] } },
{ "type": "Feature", "properties": { "PHCode_Mun": "021523000", "Mun_Name": "SANTA ANA" }, "geometry": { "type": "Point", "coordinates": [ 122.221357, 18.393458 ] } },
{ "type": "Feature", "properties": { "PHCode_Mun": "021524000", "Mun_Name": "SANTA PRAXEDES" }, "geometry": { "type": "Point", "coordinates": [ 120.999554, 18.533312 ] } },
{ "type": "Feature", "properties": { "PHCode_Mun": "021525000", "Mun_Name": "SANTA TERESITA" }, "geometry": { "type": "Point", "coordinates": [ 121.903314, 18.215909 ] } },
{ "type": "Feature", "properties": { "PHCode_Mun": "021526000", "Mun_Name": "SANTO NIÑO (FAIRE)" }, "geometry": { "type": "Point", "coordinates": [ 121.531386, 17.913298 ] } },
{ "type": "Feature", "properties": { "PHCode_Mun": "021527000", "Mun_Name": "SOLANA" }, "geometry": { "type": "Point", "coordinates": [ 121.641414, 17.664206 ] } },
{ "type": "Feature", "properties": { "PHCode_Mun": "021528000", "Mun_Name": "TUAO" }, "geometry": { "type": "Point", "coordinates": [ 121.500789, 17.679442 ] } },
{ "type": "Feature", "properties": { "PHCode_Mun": "021529000", "Mun_Name": "TUGUEGARAO CITY (Capital)" }, "geometry": { "type": "Point", "coordinates": [ 121.749287, 17.61034 ] } },
{ "type": "Feature", "properties": { "PHCode_Mun": "023101000", "Mun_Name": "ALICIA" }, "geometry": { "type": "Point", "coordinates": [ 121.674833, 16.815184 ] } },
{ "type": "Feature", "properties": { "PHCode_Mun": "023102000", "Mun_Name": "ANGADANAN" }, "geometry": { "type": "Point", "coordinates": [ 121.802727, 16.77986 ] } },
{ "type": "Feature", "properties": { "PHCode_Mun": "023103000", "Mun_Name": "AURORA" }, "geometry": { "type": "Point", "coordinates": [ 121.643155, 16.983561 ] } },
{ "type": "Feature", "properties": { "PHCode_Mun": "023104000", "Mun_Name": "BENITO SOLIVEN" }, "geometry": { "type": "Point", "coordinates": [ 121.96815, 16.902478 ] } },
{ "type": "Feature", "properties": { "PHCode_Mun": "023105000", "Mun_Name": "BURGOS" }, "geometry": { "type": "Point", "coordinates": [ 121.718548, 17.063177 ] } },
{ "type": "Feature", "properties": { "PHCode_Mun": "023106000", "Mun_Name": "CABAGAN" }, "geometry": { "type": "Point", "coordinates": [ 121.881424, 17.386457 ] } },
{ "type": "Feature", "properties": { "PHCode_Mun": "023107000", "Mun_Name": "CABATUAN" }, "geometry": { "type": "Point", "coordinates": [ 121.660385, 16.934635 ] } },
{ "type": "Feature", "properties": { "PHCode_Mun": "023108000", "Mun_Name": "CITY OF CAUAYAN" }, "geometry": { "type": "Point", "coordinates": [ 121.820599, 16.878414 ] } },
{ "type": "Feature", "properties": { "PHCode_Mun": "023109000", "Mun_Name": "CORDON" }, "geometry": { "type": "Point", "coordinates": [ 121.431904, 16.723449 ] } },
{ "type": "Feature", "properties": { "PHCode_Mun": "023110000", "Mun_Name": "DINAPIGUE" }, "geometry": { "type": "Point", "coordinates": [ 122.2634, 16.687366 ] } },
{ "type": "Feature", "properties": { "PHCode_Mun": "023111000", "Mun_Name": "DIVILACAN" }, "geometry": { "type": "Point", "coordinates": [ 122.315472, 17.241942 ] } },
{ "type": "Feature", "properties": { "PHCode_Mun": "023112000", "Mun_Name": "ECHAGUE" }, "geometry": { "type": "Point", "coordinates": [ 121.773807, 16.642683 ] } },
{ "type": "Feature", "properties": { "PHCode_Mun": "023113000", "Mun_Name": "GAMU" }, "geometry": { "type": "Point", "coordinates": [ 121.80592, 17.074297 ] } },
{ "type": "Feature", "properties": { "PHCode_Mun": "023114000", "Mun_Name": "ILAGAN CITY (Capital)" }, "geometry": { "type": "Point", "coordinates": [ 122.029088, 17.150233 ] } },
{ "type": "Feature", "properties": { "PHCode_Mun": "023115000", "Mun_Name": "JONES" }, "geometry": { "type": "Point", "coordinates": [ 121.821597, 16.547008 ] } },
{ "type": "Feature", "properties": { "PHCode_Mun": "023116000", "Mun_Name": "LUNA" }, "geometry": { "type": "Point", "coordinates": [ 121.721313, 16.967599 ] } },
{ "type": "Feature", "properties": { "PHCode_Mun": "023117000", "Mun_Name": "MACONACON" }, "geometry": { "type": "Point", "coordinates": [ 122.146567, 17.431926 ] } },
{ "type": "Feature", "properties": { "PHCode_Mun": "023118000", "Mun_Name": "DELFIN ALBANO (MAGSAYSAY)" }, "geometry": { "type": "Point", "coordinates": [ 121.741361, 17.269528 ] } },
{ "type": "Feature", "properties": { "PHCode_Mun": "023119000", "Mun_Name": "MALLIG" }, "geometry": { "type": "Point", "coordinates": [ 121.622173, 17.209615 ] } },
{ "type": "Feature", "properties": { "PHCode_Mun": "023120000", "Mun_Name": "NAGUILIAN" }, "geometry": { "type": "Point", "coordinates": [ 121.880104, 16.977728 ] } },
{ "type": "Feature", "properties": { "PHCode_Mun": "023121000", "Mun_Name": "PALANAN" }, "geometry": { "type": "Point", "coordinates": [ 122.420524, 17.008816 ] } },
{ "type": "Feature", "properties": { "PHCode_Mun": "023122000", "Mun_Name": "QUEZON" }, "geometry": { "type": "Point", "coordinates": [ 121.61249, 17.309825 ] } },
{ "type": "Feature", "properties": { "PHCode_Mun": "023123000", "Mun_Name": "QUIRINO" }, "geometry": { "type": "Point", "coordinates": [ 121.732677, 17.156461 ] } },
{ "type": "Feature", "properties": { "PHCode_Mun": "023124000", "Mun_Name": "RAMON" }, "geometry": { "type": "Point", "coordinates": [ 121.520521, 16.789178 ] } },
{ "type": "Feature", "properties": { "PHCode_Mun": "023125000", "Mun_Name": "REINA MERCEDES" }, "geometry": { "type": "Point", "coordinates": [ 121.776385, 17.001069 ] } },
{ "type": "Feature", "properties": { "PHCode_Mun": "023126000", "Mun_Name": "ROXAS" }, "geometry": { "type": "Point", "coordinates": [ 121.611263, 17.12278 ] } },
{ "type": "Feature", "properties": { "PHCode_Mun": "023127000", "Mun_Name": "SAN AGUSTIN" }, "geometry": { "type": "Point", "coordinates": [ 121.77047, 16.465892 ] } },
{ "type": "Feature", "properties": { "PHCode_Mun": "023128000", "Mun_Name": "SAN GUILLERMO" }, "geometry": { "type": "Point", "coordinates": [ 121.961066, 16.676023 ] } },
{ "type": "Feature", "properties": { "PHCode_Mun": "023129000", "Mun_Name": "SAN ISIDRO" }, "geometry": { "type": "Point", "coordinates": [ 121.623554, 16.742201 ] } },
{ "type": "Feature", "properties": { "PHCode_Mun": "023130000", "Mun_Name": "SAN MANUEL" }, "geometry": { "type": "Point", "coordinates": [ 121.619557, 17.034189 ] } },
{ "type": "Feature", "properties": { "PHCode_Mun": "023131000", "Mun_Name": "SAN MARIANO" }, "geometry": { "type": "Point", "coordinates": [ 122.156587, 16.903469 ] } },
{ "type": "Feature", "properties": { "PHCode_Mun": "023132000", "Mun_Name": "SAN MATEO" }, "geometry": { "type": "Point", "coordinates": [ 121.587758, 16.874808 ] } },
{ "type": "Feature", "properties": { "PHCode_Mun": "023133000", "Mun_Name": "SAN PABLO" }, "geometry": { "type": "Point", "coordinates": [ 121.938489, 17.474682 ] } },
{ "type": "Feature", "properties": { "PHCode_Mun": "023134000", "Mun_Name": "SANTA MARIA" }, "geometry": { "type": "Point", "coordinates": [ 121.709242, 17.469935 ] } },
{ "type": "Feature", "properties": { "PHCode_Mun": "023135000", "Mun_Name": "CITY OF SANTIAGO" }, "geometry": { "type": "Point", "coordinates": [ 121.556776, 16.678471 ] } },
{ "type": "Feature", "properties": { "PHCode_Mun": "023136000", "Mun_Name": "SANTO TOMAS" }, "geometry": { "type": "Point", "coordinates": [ 121.729656, 17.369748 ] } },
{ "type": "Feature", "properties": { "PHCode_Mun": "023137000", "Mun_Name": "TUMAUINI" }, "geometry": { "type": "Point", "coordinates": [ 121.928094, 17.291887 ] } },
{ "type": "Feature", "properties": { "PHCode_Mun": "025001000", "Mun_Name": "AMBAGUIO" }, "geometry": { "type": "Point", "coordinates": [ 121.04983, 16.544387 ] } },
{ "type": "Feature", "properties": { "PHCode_Mun": "025002000", "Mun_Name": "ARITAO" }, "geometry": { "type": "Point", "coordinates": [ 121.029322, 16.237116 ] } },
{ "type": "Feature", "properties": { "PHCode_Mun": "025003000", "Mun_Name": "BAGABAG" }, "geometry": { "type": "Point", "coordinates": [ 121.261659, 16.597995 ] } },
{ "type": "Feature", "properties": { "PHCode_Mun": "025004000", "Mun_Name": "BAMBANG" }, "geometry": { "type": "Point", "coordinates": [ 121.092627, 16.389026 ] } },
{ "type": "Feature", "properties": { "PHCode_Mun": "025005000", "Mun_Name": "BAYOMBONG (Capital)" }, "geometry": { "type": "Point", "coordinates": [ 121.142718, 16.476502 ] } },
{ "type": "Feature", "properties": { "PHCode_Mun": "025006000", "Mun_Name": "DIADI" }, "geometry": { "type": "Point", "coordinates": [ 121.355682, 16.641718 ] } },
{ "type": "Feature", "properties": { "PHCode_Mun": "025007000", "Mun_Name": "DUPAX DEL NORTE" }, "geometry": { "type": "Point", "coordinates": [ 121.238786, 16.204744 ] } },
{ "type": "Feature", "properties": { "PHCode_Mun": "025008000", "Mun_Name": "DUPAX DEL SUR" }, "geometry": { "type": "Point", "coordinates": [ 121.188319, 16.118066 ] } },
{ "type": "Feature", "properties": { "PHCode_Mun": "025009000", "Mun_Name": "KASIBU" }, "geometry": { "type": "Point", "coordinates": [ 121.340335, 16.328627 ] } },
{ "type": "Feature", "properties": { "PHCode_Mun": "025010000", "Mun_Name": "KAYAPA" }, "geometry": { "type": "Point", "coordinates": [ 120.922341, 16.399828 ] } },
{ "type": "Feature", "properties": { "PHCode_Mun": "025011000", "Mun_Name": "QUEZON" }, "geometry": { "type": "Point", "coordinates": [ 121.295684, 16.479036 ] } },
{ "type": "Feature", "properties": { "PHCode_Mun": "025012000", "Mun_Name": "SANTA FE" }, "geometry": { "type": "Point", "coordinates": [ 120.903321, 16.183274 ] } },
{ "type": "Feature", "properties": { "PHCode_Mun": "025013000", "Mun_Name": "SOLANO" }, "geometry": { "type": "Point", "coordinates": [ 121.176676, 16.545294 ] } },
{ "type": "Feature", "properties": { "PHCode_Mun": "025014000", "Mun_Name": "VILLAVERDE" }, "geometry": { "type": "Point", "coordinates": [ 121.154052, 16.605468 ] } },
{ "type": "Feature", "properties": { "PHCode_Mun": "025015000", "Mun_Name": "ALFONSO CASTANEDA" }, "geometry": { "type": "Point", "coordinates": [ 121.328172, 15.909342 ] } },
{ "type": "Feature", "properties": { "PHCode_Mun": "025701000", "Mun_Name": "AGLIPAY" }, "geometry": { "type": "Point", "coordinates": [ 121.586097, 16.413675 ] } },
{ "type": "Feature", "properties": { "PHCode_Mun": "025702000", "Mun_Name": "CABARROGUIS (Capital)" }, "geometry": { "type": "Point", "coordinates": [ 121.498756, 16.441924 ] } },
{ "type": "Feature", "properties": { "PHCode_Mun": "025703000", "Mun_Name": "DIFFUN" }, "geometry": { "type": "Point", "coordinates": [ 121.458519, 16.550175 ] } },
{ "type": "Feature", "properties": { "PHCode_Mun": "025704000", "Mun_Name": "MADDELA" }, "geometry": { "type": "Point", "coordinates": [ 121.782467, 16.353917 ] } },
{ "type": "Feature", "properties": { "PHCode_Mun": "025705000", "Mun_Name": "SAGUDAY" }, "geometry": { "type": "Point", "coordinates": [ 121.576857, 16.548099 ] } },
{ "type": "Feature", "properties": { "PHCode_Mun": "025706000", "Mun_Name": "NAGTIPUNAN" }, "geometry": { "type": "Point", "coordinates": [ 121.525972, 16.131826 ] } },
{ "type": "Feature", "properties": { "PHCode_Mun": "030801000", "Mun_Name": "ABUCAY" }, "geometry": { "type": "Point", "coordinates": [ 120.487222, 14.721644 ] } },
{ "type": "Feature", "properties": { "PHCode_Mun": "030802000", "Mun_Name": "BAGAC" }, "geometry": { "type": "Point", "coordinates": [ 120.414685, 14.589283 ] } },
{ "type": "Feature", "properties": { "PHCode_Mun": "030803000", "Mun_Name": "CITY OF BALANGA (Capital)" }, "geometry": { "type": "Point", "coordinates": [ 120.486259, 14.667699 ] } },
{ "type": "Feature", "properties": { "PHCode_Mun": "030804000", "Mun_Name": "DINALUPIHAN" }, "geometry": { "type": "Point", "coordinates": [ 120.427137, 14.877355 ] } },
{ "type": "Feature", "properties": { "PHCode_Mun": "030805000", "Mun_Name": "HERMOSA" }, "geometry": { "type": "Point", "coordinates": [ 120.426906, 14.817251 ] } },
{ "type": "Feature", "properties": { "PHCode_Mun": "030806000", "Mun_Name": "LIMAY" }, "geometry": { "type": "Point", "coordinates": [ 120.563057, 14.53759 ] } },
{ "type": "Feature", "properties": { "PHCode_Mun": "030807000", "Mun_Name": "MARIVELES" }, "geometry": { "type": "Point", "coordinates": [ 120.506669, 14.474862 ] } },
{ "type": "Feature", "properties": { "PHCode_Mun": "030808000", "Mun_Name": "MORONG" }, "geometry": { "type": "Point", "coordinates": [ 120.328845, 14.705397 ] } },
{ "type": "Feature", "properties": { "PHCode_Mun": "030809000", "Mun_Name": "ORANI" }, "geometry": { "type": "Point", "coordinates": [ 120.485721, 14.790488 ] } },
{ "type": "Feature", "properties": { "PHCode_Mun": "030810000", "Mun_Name": "ORION" }, "geometry": { "type": "Point", "coordinates": [ 120.53288, 14.590219 ] } },
{ "type": "Feature", "properties": { "PHCode_Mun": "030811000", "Mun_Name": "PILAR" }, "geometry": { "type": "Point", "coordinates": [ 120.518884, 14.630308 ] } },
{ "type": "Feature", "properties": { "PHCode_Mun": "030812000", "Mun_Name": "SAMAL" }, "geometry": { "type": "Point", "coordinates": [ 120.490094, 14.759782 ] } },
{ "type": "Feature", "properties": { "PHCode_Mun": "031401000", "Mun_Name": "ANGAT" }, "geometry": { "type": "Point", "coordinates": [ 121.008804, 14.930413 ] } },
{ "type": "Feature", "properties": { "PHCode_Mun": "031402000", "Mun_Name": "BALAGTAS (BIGAA)" }, "geometry": { "type": "Point", "coordinates": [ 120.909065, 14.82835 ] } },
{ "type": "Feature", "properties": { "PHCode_Mun": "031403000", "Mun_Name": "BALIUAG" }, "geometry": { "type": "Point", "coordinates": [ 120.882549, 14.961457 ] } },
{ "type": "Feature", "properties": { "PHCode_Mun": "031404000", "Mun_Name": "BOCAUE" }, "geometry": { "type": "Point", "coordinates": [ 120.932576, 14.798714 ] } },
{ "type": "Feature", "properties": { "PHCode_Mun": "031405000", "Mun_Name": "BULACAN" }, "geometry": { "type": "Point", "coordinates": [ 120.870971, 14.768029 ] } },
{ "type": "Feature", "properties": { "PHCode_Mun": "031406000", "Mun_Name": "BUSTOS" }, "geometry": { "type": "Point", "coordinates": [ 120.928945, 14.93072 ] } },
{ "type": "Feature", "properties": { "PHCode_Mun": "031407000", "Mun_Name": "CALUMPIT" }, "geometry": { "type": "Point", "coordinates": [ 120.764007, 14.902373 ] } },
{ "type": "Feature", "properties": { "PHCode_Mun": "031408000", "Mun_Name": "GUIGUINTO" }, "geometry": { "type": "Point", "coordinates": [ 120.879511, 14.844398 ] } },
{ "type": "Feature", "properties": { "PHCode_Mun": "031409000", "Mun_Name": "HAGONOY" }, "geometry": { "type": "Point", "coordinates": [ 120.734361, 14.816595 ] } },
{ "type": "Feature", "properties": { "PHCode_Mun": "031410000", "Mun_Name": "CITY OF MALOLOS (Capital)" }, "geometry": { "type": "Point", "coordinates": [ 120.824107, 14.832804 ] } },
{ "type": "Feature", "properties": { "PHCode_Mun": "031411000", "Mun_Name": "MARILAO" }, "geometry": { "type": "Point", "coordinates": [ 120.971284, 14.772859 ] } },
{ "type": "Feature", "properties": { "PHCode_Mun": "031412000", "Mun_Name": "CITY OF MEYCAUAYAN" }, "geometry": { "type": "Point", "coordinates": [ 120.967938, 14.752384 ] } },
{ "type": "Feature", "properties": { "PHCode_Mun": "031413000", "Mun_Name": "NORZAGARAY" }, "geometry": { "type": "Point", "coordinates": [ 121.181967, 14.878069 ] } },
{ "type": "Feature", "properties": { "PHCode_Mun": "031414000", "Mun_Name": "OBANDO" }, "geometry": { "type": "Point", "coordinates": [ 120.920391, 14.719946 ] } },
{ "type": "Feature", "properties": { "PHCode_Mun": "031415000", "Mun_Name": "PANDI" }, "geometry": { "type": "Point", "coordinates": [ 120.949203, 14.881352 ] } },
{ "type": "Feature", "properties": { "PHCode_Mun": "031416000", "Mun_Name": "PAOMBONG" }, "geometry": { "type": "Point", "coordinates": [ 120.783729, 14.809766 ] } },
{ "type": "Feature", "properties": { "PHCode_Mun": "031417000", "Mun_Name": "PLARIDEL" }, "geometry": { "type": "Point", "coordinates": [ 120.867604, 14.888287 ] } },
{ "type": "Feature", "properties": { "PHCode_Mun": "031418000", "Mun_Name": "PULILAN" }, "geometry": { "type": "Point", "coordinates": [ 120.837849, 14.921803 ] } },
{ "type": "Feature", "properties": { "PHCode_Mun": "031419000", "Mun_Name": "SAN ILDEFONSO" }, "geometry": { "type": "Point", "coordinates": [ 120.998151, 15.062306 ] } },
{ "type": "Feature", "properties": { "PHCode_Mun": "031420000", "Mun_Name": "CITY OF SAN JOSE DEL MONTE" }, "geometry": { "type": "Point", "coordinates": [ 121.083586, 14.815957 ] } },
{ "type": "Feature", "properties": { "PHCode_Mun": "031421000", "Mun_Name": "SAN MIGUEL" }, "geometry": { "type": "Point", "coordinates": [ 121.011395, 15.179527 ] } },
{ "type": "Feature", "properties": { "PHCode_Mun": "031422000", "Mun_Name": "SAN RAFAEL" }, "geometry": { "type": "Point", "coordinates": [ 120.966737, 14.993302 ] } },
{ "type": "Feature", "properties": { "PHCode_Mun": "031423000", "Mun_Name": "SANTA MARIA" }, "geometry": { "type": "Point", "coordinates": [ 120.989235, 14.839063 ] } },
{ "type": "Feature", "properties": { "PHCode_Mun": "031424000", "Mun_Name": "DOÑA REMEDIOS TRINIDAD" }, "geometry": { "type": "Point", "coordinates": [ 121.195372, 15.071688 ] } },
{ "type": "Feature", "properties": { "PHCode_Mun": "034901000", "Mun_Name": "ALIAGA" }, "geometry": { "type": "Point", "coordinates": [ 120.864978, 15.505535 ] } },
{ "type": "Feature", "properties": { "PHCode_Mun": "034902000", "Mun_Name": "BONGABON" }, "geometry": { "type": "Point", "coordinates": [ 121.227735, 15.657776 ] } },
{ "type": "Feature", "properties": { "PHCode_Mun": "034903000", "Mun_Name": "CABANATUAN CITY" }, "geometry": { "type": "Point", "coordinates": [ 120.990155, 15.492491 ] } },
{ "type": "Feature", "properties": { "PHCode_Mun": "034904000", "Mun_Name": "CABIAO" }, "geometry": { "type": "Point", "coordinates": [ 120.84466, 15.23498 ] } },
{ "type": "Feature", "properties": { "PHCode_Mun": "034905000", "Mun_Name": "CARRANGLAN" }, "geometry": { "type": "Point", "coordinates": [ 121.028961, 16.015373 ] } },
{ "type": "Feature", "properties": { "PHCode_Mun": "034906000", "Mun_Name": "CUYAPO" }, "geometry": { "type": "Point", "coordinates": [ 120.704526, 15.785551 ] } },
{ "type": "Feature", "properties": { "PHCode_Mun": "034907000", "Mun_Name": "GABALDON (BITULOK & SABANI)" }, "geometry": { "type": "Point", "coordinates": [ 121.285819, 15.498069 ] } },
{ "type": "Feature", "properties": { "PHCode_Mun": "034908000", "Mun_Name": "CITY OF GAPAN" }, "geometry": { "type": "Point", "coordinates": [ 121.007496, 15.285332 ] } },
{ "type": "Feature", "properties": { "PHCode_Mun": "034909000", "Mun_Name": "GENERAL MAMERTO NATIVIDAD" }, "geometry": { "type": "Point", "coordinates": [ 121.053758, 15.590536 ] } },
{ "type": "Feature", "properties": { "PHCode_Mun": "034910000", "Mun_Name": "GENERAL TINIO (PAPAYA)" }, "geometry": { "type": "Point", "coordinates": [ 121.211544, 15.327185 ] } },
{ "type": "Feature", "properties": { "PHCode_Mun": "034911000", "Mun_Name": "GUIMBA" }, "geometry": { "type": "Point", "coordinates": [ 120.759393, 15.655739 ] } },
{ "type": "Feature", "properties": { "PHCode_Mun": "034912000", "Mun_Name": "JAEN" }, "geometry": { "type": "Point", "coordinates": [ 120.875469, 15.381482 ] } },
{ "type": "Feature", "properties": { "PHCode_Mun": "034913000", "Mun_Name": "LAUR" }, "geometry": { "type": "Point", "coordinates": [ 121.181831, 15.540682 ] } },
{ "type": "Feature", "properties": { "PHCode_Mun": "034914000", "Mun_Name": "LICAB" }, "geometry": { "type": "Point", "coordinates": [ 120.769477, 15.531563 ] } },
{ "type": "Feature", "properties": { "PHCode_Mun": "034915000", "Mun_Name": "LLANERA" }, "geometry": { "type": "Point", "coordinates": [ 121.011587, 15.671014 ] } },
{ "type": "Feature", "properties": { "PHCode_Mun": "034916000", "Mun_Name": "LUPAO" }, "geometry": { "type": "Point", "coordinates": [ 120.90702, 15.853565 ] } },
{ "type": "Feature", "properties": { "PHCode_Mun": "034917000", "Mun_Name": "SCIENCE CITY OF MUÑOZ" }, "geometry": { "type": "Point", "coordinates": [ 120.896804, 15.733486 ] } },
{ "type": "Feature", "properties": { "PHCode_Mun": "034918000", "Mun_Name": "NAMPICUAN" }, "geometry": { "type": "Point", "coordinates": [ 120.663935, 15.717397 ] } },
{ "type": "Feature", "properties": { "PHCode_Mun": "034919000", "Mun_Name": "PALAYAN CITY (Capital)" }, "geometry": { "type": "Point", "coordinates": [ 121.110302, 15.493433 ] } },
{ "type": "Feature", "properties": { "PHCode_Mun": "034920000", "Mun_Name": "PANTABANGAN" }, "geometry": { "type": "Point", "coordinates": [ 121.155834, 15.823417 ] } },
{ "type": "Feature", "properties": { "PHCode_Mun": "034921000", "Mun_Name": "PEÑARANDA" }, "geometry": { "type": "Point", "coordinates": [ 121.024135, 15.376323 ] } },
{ "type": "Feature", "properties": { "PHCode_Mun": "034922000", "Mun_Name": "QUEZON" }, "geometry": { "type": "Point", "coordinates": [ 120.829114, 15.566662 ] } },
{ "type": "Feature", "properties": { "PHCode_Mun": "034923000", "Mun_Name": "RIZAL" }, "geometry": { "type": "Point", "coordinates": [ 121.112571, 15.685845 ] } },
{ "type": "Feature", "properties": { "PHCode_Mun": "034924000", "Mun_Name": "SAN ANTONIO" }, "geometry": { "type": "Point", "coordinates": [ 120.804643, 15.327754 ] } },
{ "type": "Feature", "properties": { "PHCode_Mun": "034925000", "Mun_Name": "SAN ISIDRO" }, "geometry": { "type": "Point", "coordinates": [ 120.910051, 15.271033 ] } },
{ "type": "Feature", "properties": { "PHCode_Mun": "034926000", "Mun_Name": "SAN JOSE CITY" }, "geometry": { "type": "Point", "coordinates": [ 120.999561, 15.785718 ] } },
{ "type": "Feature", "properties": { "PHCode_Mun": "034927000", "Mun_Name": "SAN LEONARDO" }, "geometry": { "type": "Point", "coordinates": [ 120.947561, 15.359798 ] } },
{ "type": "Feature", "properties": { "PHCode_Mun": "034928000", "Mun_Name": "SANTA ROSA" }, "geometry": { "type": "Point", "coordinates": [ 120.966537, 15.43235 ] } },
{ "type": "Feature", "properties": { "PHCode_Mun": "034929000", "Mun_Name": "SANTO DOMINGO" }, "geometry": { "type": "Point", "coordinates": [ 120.878733, 15.622157 ] } },
{ "type": "Feature", "properties": { "PHCode_Mun": "034930000", "Mun_Name": "TALAVERA" }, "geometry": { "type": "Point", "coordinates": [ 120.939464, 15.62078 ] } },
{ "type": "Feature", "properties": { "PHCode_Mun": "034931000", "Mun_Name": "TALUGTUG" }, "geometry": { "type": "Point", "coordinates": [ 120.810207, 15.763187 ] } },
{ "type": "Feature", "properties": { "PHCode_Mun": "034932000", "Mun_Name": "ZARAGOZA" }, "geometry": { "type": "Point", "coordinates": [ 120.79238, 15.444986 ] } },
{ "type": "Feature", "properties": { "PHCode_Mun": "035401000", "Mun_Name": "ANGELES CITY" }, "geometry": { "type": "Point", "coordinates": [ 120.549665, 15.165213 ] } },
{ "type": "Feature", "properties": { "PHCode_Mun": "035402000", "Mun_Name": "APALIT" }, "geometry": { "type": "Point", "coordinates": [ 120.787157, 14.958426 ] } },
{ "type": "Feature", "properties": { "PHCode_Mun": "035403000", "Mun_Name": "ARAYAT" }, "geometry": { "type": "Point", "coordinates": [ 120.764051, 15.179623 ] } },
{ "type": "Feature", "properties": { "PHCode_Mun": "035404000", "Mun_Name": "BACOLOR" }, "geometry": { "type": "Point", "coordinates": [ 120.629204, 15.036663 ] } },
{ "type": "Feature", "properties": { "PHCode_Mun": "035405000", "Mun_Name": "CANDABA" }, "geometry": { "type": "Point", "coordinates": [ 120.874086, 15.103749 ] } },
{ "type": "Feature", "properties": { "PHCode_Mun": "035406000", "Mun_Name": "FLORIDABLANCA" }, "geometry": { "type": "Point", "coordinates": [ 120.487431, 14.97755 ] } },
{ "type": "Feature", "properties": { "PHCode_Mun": "035407000", "Mun_Name": "GUAGUA" }, "geometry": { "type": "Point", "coordinates": [ 120.597208, 14.986273 ] } },
{ "type": "Feature", "properties": { "PHCode_Mun": "035408000", "Mun_Name": "LUBAO" }, "geometry": { "type": "Point", "coordinates": [ 120.561123, 14.898789 ] } },
{ "type": "Feature", "properties": { "PHCode_Mun": "035409000", "Mun_Name": "MABALACAT CITY" }, "geometry": { "type": "Point", "coordinates": [ 120.558386, 15.223114 ] } },
{ "type": "Feature", "properties": { "PHCode_Mun": "035410000", "Mun_Name": "MACABEBE" }, "geometry": { "type": "Point", "coordinates": [ 120.666701, 14.871494 ] } },
{ "type": "Feature", "properties": { "PHCode_Mun": "035411000", "Mun_Name": "MAGALANG" }, "geometry": { "type": "Point", "coordinates": [ 120.675088, 15.234028 ] } },
{ "type": "Feature", "properties": { "PHCode_Mun": "035412000", "Mun_Name": "MASANTOL" }, "geometry": { "type": "Point", "coordinates": [ 120.68403, 14.848139 ] } },
{ "type": "Feature", "properties": { "PHCode_Mun": "035413000", "Mun_Name": "MEXICO" }, "geometry": { "type": "Point", "coordinates": [ 120.697213, 15.102044 ] } },
{ "type": "Feature", "properties": { "PHCode_Mun": "035414000", "Mun_Name": "MINALIN" }, "geometry": { "type": "Point", "coordinates": [ 120.693199, 14.959646 ] } },
{ "type": "Feature", "properties": { "PHCode_Mun": "035415000", "Mun_Name": "PORAC" }, "geometry": { "type": "Point", "coordinates": [ 120.472972, 15.098628 ] } },
{ "type": "Feature", "properties": { "PHCode_Mun": "035416000", "Mun_Name": "CITY OF SAN FERNANDO (Capital)" }, "geometry": { "type": "Point", "coordinates": [ 120.658311, 15.067681 ] } },
{ "type": "Feature", "properties": { "PHCode_Mun": "035417000", "Mun_Name": "SAN LUIS" }, "geometry": { "type": "Point", "coordinates": [ 120.81251, 15.033673 ] } },
{ "type": "Feature", "properties": { "PHCode_Mun": "035418000", "Mun_Name": "SAN SIMON" }, "geometry": { "type": "Point", "coordinates": [ 120.790021, 15.001703 ] } },
{ "type": "Feature", "properties": { "PHCode_Mun": "035419000", "Mun_Name": "SANTA ANA" }, "geometry": { "type": "Point", "coordinates": [ 120.756684, 15.106236 ] } },
{ "type": "Feature", "properties": { "PHCode_Mun": "035420000", "Mun_Name": "SANTA RITA" }, "geometry": { "type": "Point", "coordinates": [ 120.594551, 15.017242 ] } },
{ "type": "Feature", "properties": { "PHCode_Mun": "035421000", "Mun_Name": "SANTO TOMAS" }, "geometry": { "type": "Point", "coordinates": [ 120.715075, 15.000428 ] } },
{ "type": "Feature", "properties": { "PHCode_Mun": "035422000", "Mun_Name": "SASMUAN (Sexmoan)" }, "geometry": { "type": "Point", "coordinates": [ 120.620354, 14.884756 ] } },
{ "type": "Feature", "properties": { "PHCode_Mun": "036901000", "Mun_Name": "ANAO" }, "geometry": { "type": "Point", "coordinates": [ 120.615184, 15.735414 ] } },
{ "type": "Feature", "properties": { "PHCode_Mun": "036902000", "Mun_Name": "BAMBAN" }, "geometry": { "type": "Point", "coordinates": [ 120.466934, 15.245311 ] } },
{ "type": "Feature", "properties": { "PHCode_Mun": "036903000", "Mun_Name": "CAMILING" }, "geometry": { "type": "Point", "coordinates": [ 120.411246, 15.682868 ] } },
{ "type": "Feature", "properties": { "PHCode_Mun": "036904000", "Mun_Name": "CAPAS" }, "geometry": { "type": "Point", "coordinates": [ 120.440184, 15.334131 ] } },
{ "type": "Feature", "properties": { "PHCode_Mun": "036905000", "Mun_Name": "CONCEPCION" }, "geometry": { "type": "Point", "coordinates": [ 120.668831, 15.335851 ] } },
{ "type": "Feature", "properties": { "PHCode_Mun": "036906000", "Mun_Name": "GERONA" }, "geometry": { "type": "Point", "coordinates": [ 120.564551, 15.59493 ] } },
{ "type": "Feature", "properties": { "PHCode_Mun": "036907000", "Mun_Name": "LA PAZ" }, "geometry": { "type": "Point", "coordinates": [ 120.7161, 15.446025 ] } },
{ "type": "Feature", "properties": { "PHCode_Mun": "036908000", "Mun_Name": "MAYANTOC" }, "geometry": { "type": "Point", "coordinates": [ 120.309838, 15.55891 ] } },
{ "type": "Feature", "properties": { "PHCode_Mun": "036909000", "Mun_Name": "MONCADA" }, "geometry": { "type": "Point", "coordinates": [ 120.546763, 15.734909 ] } },
{ "type": "Feature", "properties": { "PHCode_Mun": "036910000", "Mun_Name": "PANIQUI" }, "geometry": { "type": "Point", "coordinates": [ 120.542954, 15.663871 ] } },
{ "type": "Feature", "properties": { "PHCode_Mun": "036911000", "Mun_Name": "PURA" }, "geometry": { "type": "Point", "coordinates": [ 120.647737, 15.622445 ] } },
{ "type": "Feature", "properties": { "PHCode_Mun": "036912000", "Mun_Name": "RAMOS" }, "geometry": { "type": "Point", "coordinates": [ 120.629506, 15.67394 ] } },
{ "type": "Feature", "properties": { "PHCode_Mun": "036913000", "Mun_Name": "SAN CLEMENTE" }, "geometry": { "type": "Point", "coordinates": [ 120.329359, 15.665641 ] } },
{ "type": "Feature", "properties": { "PHCode_Mun": "036914000", "Mun_Name": "SAN MANUEL" }, "geometry": { "type": "Point", "coordinates": [ 120.598804, 15.814843 ] } },
{ "type": "Feature", "properties": { "PHCode_Mun": "036915000", "Mun_Name": "SANTA IGNACIA" }, "geometry": { "type": "Point", "coordinates": [ 120.44778, 15.580822 ] } },
{ "type": "Feature", "properties": { "PHCode_Mun": "036916000", "Mun_Name": "CITY OF TARLAC (Capital)" }, "geometry": { "type": "Point", "coordinates": [ 120.596146, 15.481466 ] } },
{ "type": "Feature", "properties": { "PHCode_Mun": "036917000", "Mun_Name": "VICTORIA" }, "geometry": { "type": "Point", "coordinates": [ 120.687256, 15.572299 ] } },
{ "type": "Feature", "properties": { "PHCode_Mun": "036918000", "Mun_Name": "SAN JOSE" }, "geometry": { "type": "Point", "coordinates": [ 120.333786, 15.43651 ] } },
{ "type": "Feature", "properties": { "PHCode_Mun": "037101000", "Mun_Name": "BOTOLAN" }, "geometry": { "type": "Point", "coordinates": [ 120.193391, 15.237719 ] } },
{ "type": "Feature", "properties": { "PHCode_Mun": "037102000", "Mun_Name": "CABANGAN" }, "geometry": { "type": "Point", "coordinates": [ 120.114866, 15.16107 ] } },
{ "type": "Feature", "properties": { "PHCode_Mun": "037103000", "Mun_Name": "CANDELARIA" }, "geometry": { "type": "Point", "coordinates": [ 120.085666, 15.631027 ] } },
{ "type": "Feature", "properties": { "PHCode_Mun": "037104000", "Mun_Name": "CASTILLEJOS" }, "geometry": { "type": "Point", "coordinates": [ 120.204503, 14.928159 ] } },
{ "type": "Feature", "properties": { "PHCode_Mun": "037105000", "Mun_Name": "IBA (Capital)" }, "geometry": { "type": "Point", "coordinates": [ 120.03652, 15.367724 ] } },
{ "type": "Feature", "properties": { "PHCode_Mun": "037106000", "Mun_Name": "MASINLOC" }, "geometry": { "type": "Point", "coordinates": [ 120.054427, 15.537645 ] } },
{ "type": "Feature", "properties": { "PHCode_Mun": "037107000", "Mun_Name": "OLONGAPO CITY" }, "geometry": { "type": "Point", "coordinates": [ 120.306473, 14.826789 ] } },
{ "type": "Feature", "properties": { "PHCode_Mun": "037108000", "Mun_Name": "PALAUIG" }, "geometry": { "type": "Point", "coordinates": [ 120.050314, 15.446656 ] } },
{ "type": "Feature", "properties": { "PHCode_Mun": "037109000", "Mun_Name": "SAN ANTONIO" }, "geometry": { "type": "Point", "coordinates": [ 120.106041, 14.879235 ] } },
{ "type": "Feature", "properties": { "PHCode_Mun": "037110000", "Mun_Name": "SAN FELIPE" }, "geometry": { "type": "Point", "coordinates": [ 120.118184, 15.073917 ] } },
{ "type": "Feature", "properties": { "PHCode_Mun": "037111000", "Mun_Name": "SAN MARCELINO" }, "geometry": { "type": "Point", "coordinates": [ 120.295887, 15.020822 ] } },
{ "type": "Feature", "properties": { "PHCode_Mun": "037112000", "Mun_Name": "SAN NARCISO" }, "geometry": { "type": "Point", "coordinates": [ 120.117727, 15.010401 ] } },
{ "type": "Feature", "properties": { "PHCode_Mun": "037113000", "Mun_Name": "SANTA CRUZ" }, "geometry": { "type": "Point", "coordinates": [ 120.034215, 15.758572 ] } },
{ "type": "Feature", "properties": { "PHCode_Mun": "037114000", "Mun_Name": "SUBIC" }, "geometry": { "type": "Point", "coordinates": [ 120.27204, 14.876926 ] } },
{ "type": "Feature", "properties": { "PHCode_Mun": "037701000", "Mun_Name": "BALER (Capital)" }, "geometry": { "type": "Point", "coordinates": [ 121.571186, 15.745052 ] } },
{ "type": "Feature", "properties": { "PHCode_Mun": "037702000", "Mun_Name": "CASIGURAN" }, "geometry": { "type": "Point", "coordinates": [ 122.055764, 16.240859 ] } },
{ "type": "Feature", "properties": { "PHCode_Mun": "037703000", "Mun_Name": "DILASAG" }, "geometry": { "type": "Point", "coordinates": [ 122.096803, 16.39968 ] } },
{ "type": "Feature", "properties": { "PHCode_Mun": "037704000", "Mun_Name": "DINALUNGAN" }, "geometry": { "type": "Point", "coordinates": [ 121.879841, 16.186347 ] } },
{ "type": "Feature", "properties": { "PHCode_Mun": "037705000", "Mun_Name": "DINGALAN" }, "geometry": { "type": "Point", "coordinates": [ 121.375952, 15.268965 ] } },
{ "type": "Feature", "properties": { "PHCode_Mun": "037706000", "Mun_Name": "DIPACULAO" }, "geometry": { "type": "Point", "coordinates": [ 121.621038, 15.997119 ] } },
{ "type": "Feature", "properties": { "PHCode_Mun": "037707000", "Mun_Name": "MARIA AURORA" }, "geometry": { "type": "Point", "coordinates": [ 121.403298, 15.772547 ] } },
{ "type": "Feature", "properties": { "PHCode_Mun": "037708000", "Mun_Name": "SAN LUIS" }, "geometry": { "type": "Point", "coordinates": [ 121.455434, 15.611844 ] } },
{ "type": "Feature", "properties": { "PHCode_Mun": "041001000", "Mun_Name": "AGONCILLO" }, "geometry": { "type": "Point", "coordinates": [ 120.92736, 13.967793 ] } },
{ "type": "Feature", "properties": { "PHCode_Mun": "041002000", "Mun_Name": "ALITAGTAG" }, "geometry": { "type": "Point", "coordinates": [ 121.013808, 13.866258 ] } },
{ "type": "Feature", "properties": { "PHCode_Mun": "041003000", "Mun_Name": "BALAYAN" }, "geometry": { "type": "Point", "coordinates": [ 120.732002, 13.966402 ] } },
{ "type": "Feature", "properties": { "PHCode_Mun": "041004000", "Mun_Name": "BALETE" }, "geometry": { "type": "Point", "coordinates": [ 121.102418, 14.011561 ] } },
{ "type": "Feature", "properties": { "PHCode_Mun": "041005000", "Mun_Name": "BATANGAS CITY (Capital)" }, "geometry": { "type": "Point", "coordinates": [ 121.102618, 13.710154 ] } },
{ "type": "Feature", "properties": { "PHCode_Mun": "041006000", "Mun_Name": "BAUAN" }, "geometry": { "type": "Point", "coordinates": [ 120.970179, 13.801342 ] } },
{ "type": "Feature", "properties": { "PHCode_Mun": "041007000", "Mun_Name": "CALACA" }, "geometry": { "type": "Point", "coordinates": [ 120.822846, 13.977271 ] } },
{ "type": "Feature", "properties": { "PHCode_Mun": "041008000", "Mun_Name": "CALATAGAN" }, "geometry": { "type": "Point", "coordinates": [ 120.658484, 13.863534 ] } },
{ "type": "Feature", "properties": { "PHCode_Mun": "041009000", "Mun_Name": "CUENCA" }, "geometry": { "type": "Point", "coordinates": [ 121.052967, 13.90595 ] } },
{ "type": "Feature", "properties": { "PHCode_Mun": "041010000", "Mun_Name": "IBAAN" }, "geometry": { "type": "Point", "coordinates": [ 121.140312, 13.819041 ] } },
{ "type": "Feature", "properties": { "PHCode_Mun": "041011000", "Mun_Name": "LAUREL" }, "geometry": { "type": "Point", "coordinates": [ 120.906223, 14.051094 ] } },
{ "type": "Feature", "properties": { "PHCode_Mun": "041012000", "Mun_Name": "LEMERY" }, "geometry": { "type": "Point", "coordinates": [ 120.884242, 13.954752 ] } },
{ "type": "Feature", "properties": { "PHCode_Mun": "041013000", "Mun_Name": "LIAN" }, "geometry": { "type": "Point", "coordinates": [ 120.648925, 13.993471 ] } },
{ "type": "Feature", "properties": { "PHCode_Mun": "041014000", "Mun_Name": "LIPA CITY" }, "geometry": { "type": "Point", "coordinates": [ 121.170665, 13.939654 ] } },
{ "type": "Feature", "properties": { "PHCode_Mun": "041015000", "Mun_Name": "LOBO" }, "geometry": { "type": "Point", "coordinates": [ 121.262564, 13.665518 ] } },
{ "type": "Feature", "properties": { "PHCode_Mun": "041016000", "Mun_Name": "MABINI" }, "geometry": { "type": "Point", "coordinates": [ 120.913378, 13.729877 ] } },
{ "type": "Feature", "properties": { "PHCode_Mun": "041017000", "Mun_Name": "MALVAR" }, "geometry": { "type": "Point", "coordinates": [ 121.148959, 14.032961 ] } },
{ "type": "Feature", "properties": { "PHCode_Mun": "041018000", "Mun_Name": "MATAASNAKAHOY" }, "geometry": { "type": "Point", "coordinates": [ 121.102556, 13.975827 ] } },
{ "type": "Feature", "properties": { "PHCode_Mun": "041019000", "Mun_Name": "NASUGBU" }, "geometry": { "type": "Point", "coordinates": [ 120.687645, 14.118941 ] } },
{ "type": "Feature", "properties": { "PHCode_Mun": "041020000", "Mun_Name": "PADRE GARCIA" }, "geometry": { "type": "Point", "coordinates": [ 121.239637, 13.874247 ] } },
{ "type": "Feature", "properties": { "PHCode_Mun": "041021000", "Mun_Name": "ROSARIO" }, "geometry": { "type": "Point", "coordinates": [ 121.270398, 13.804536 ] } },
{ "type": "Feature", "properties": { "PHCode_Mun": "041022000", "Mun_Name": "SAN JOSE" }, "geometry": { "type": "Point", "coordinates": [ 121.089766, 13.878275 ] } },
{ "type": "Feature", "properties": { "PHCode_Mun": "041023000", "Mun_Name": "SAN JUAN" }, "geometry": { "type": "Point", "coordinates": [ 121.390416, 13.75753 ] } },
{ "type": "Feature", "properties": { "PHCode_Mun": "041024000", "Mun_Name": "SAN LUIS" }, "geometry": { "type": "Point", "coordinates": [ 120.9445, 13.835396 ] } },
{ "type": "Feature", "properties": { "PHCode_Mun": "041025000", "Mun_Name": "SAN NICOLAS" }, "geometry": { "type": "Point", "coordinates": [ 120.95573, 13.920117 ] } },
{ "type": "Feature", "properties": { "PHCode_Mun": "041026000", "Mun_Name": "SAN PASCUAL" }, "geometry": { "type": "Point", "coordinates": [ 121.03145, 13.817578 ] } },
{ "type": "Feature", "properties": { "PHCode_Mun": "041027000", "Mun_Name": "SANTA TERESITA" }, "geometry": { "type": "Point", "coordinates": [ 120.971848, 13.877694 ] } },
{ "type": "Feature", "properties": { "PHCode_Mun": "041028000", "Mun_Name": "SANTO TOMAS" }, "geometry": { "type": "Point", "coordinates": [ 121.183433, 14.075662 ] } },
{ "type": "Feature", "properties": { "PHCode_Mun": "041029000", "Mun_Name": "TAAL" }, "geometry": { "type": "Point", "coordinates": [ 120.93752, 13.886702 ] } },
{ "type": "Feature", "properties": { "PHCode_Mun": "041030000", "Mun_Name": "TALISAY" }, "geometry": { "type": "Point", "coordinates": [ 121.01343, 14.092568 ] } },
{ "type": "Feature", "properties": { "PHCode_Mun": "041031000", "Mun_Name": "CITY OF TANAUAN" }, "geometry": { "type": "Point", "coordinates": [ 121.098777, 14.094421 ] } },
{ "type": "Feature", "properties": { "PHCode_Mun": "041032000", "Mun_Name": "TAYSAN" }, "geometry": { "type": "Point", "coordinates": [ 121.223006, 13.753219 ] } },
{ "type": "Feature", "properties": { "PHCode_Mun": "041033000", "Mun_Name": "TINGLOY" }, "geometry": { "type": "Point", "coordinates": [ 120.892266, 13.647648 ] } },
{ "type": "Feature", "properties": { "PHCode_Mun": "041034000", "Mun_Name": "TUY" }, "geometry": { "type": "Point", "coordinates": [ 120.73928, 14.02826 ] } },
{ "type": "Feature", "properties": { "PHCode_Mun": "042101000", "Mun_Name": "ALFONSO" }, "geometry": { "type": "Point", "coordinates": [ 120.84054, 14.118452 ] } },
{ "type": "Feature", "properties": { "PHCode_Mun": "042102000", "Mun_Name": "AMADEO" }, "geometry": { "type": "Point", "coordinates": [ 120.928956, 14.178273 ] } },
{ "type": "Feature", "properties": { "PHCode_Mun": "042103000", "Mun_Name": "BACOOR CITY" }, "geometry": { "type": "Point", "coordinates": [ 120.971871, 14.415148 ] } },
{ "type": "Feature", "properties": { "PHCode_Mun": "042104000", "Mun_Name": "CARMONA" }, "geometry": { "type": "Point", "coordinates": [ 121.037541, 14.30211 ] } },
{ "type": "Feature", "properties": { "PHCode_Mun": "042105000", "Mun_Name": "CAVITE CITY" }, "geometry": { "type": "Point", "coordinates": [ 120.895791, 14.481627 ] } },
{ "type": "Feature", "properties": { "PHCode_Mun": "042106000", "Mun_Name": "CITY OF DASMARIÑAS" }, "geometry": { "type": "Point", "coordinates": [ 120.964624, 14.313355 ] } },
{ "type": "Feature", "properties": { "PHCode_Mun": "042107000", "Mun_Name": "GENERAL EMILIO AGUINALDO" }, "geometry": { "type": "Point", "coordinates": [ 120.801385, 14.179409 ] } },
{ "type": "Feature", "properties": { "PHCode_Mun": "042108000", "Mun_Name": "CITY OF GENERAL TRIAS" }, "geometry": { "type": "Point", "coordinates": [ 120.900799, 14.322366 ] } },
{ "type": "Feature", "properties": { "PHCode_Mun": "042109000", "Mun_Name": "IMUS CITY" }, "geometry": { "type": "Point", "coordinates": [ 120.93514, 14.396487 ] } },
{ "type": "Feature", "properties": { "PHCode_Mun": "042110000", "Mun_Name": "INDANG" }, "geometry": { "type": "Point", "coordinates": [ 120.870546, 14.191357 ] } },
{ "type": "Feature", "properties": { "PHCode_Mun": "042111000", "Mun_Name": "KAWIT" }, "geometry": { "type": "Point", "coordinates": [ 120.904142, 14.437127 ] } },
{ "type": "Feature", "properties": { "PHCode_Mun": "042112000", "Mun_Name": "MAGALLANES" }, "geometry": { "type": "Point", "coordinates": [ 120.748744, 14.16229 ] } },
{ "type": "Feature", "properties": { "PHCode_Mun": "042113000", "Mun_Name": "MARAGONDON" }, "geometry": { "type": "Point", "coordinates": [ 120.727841, 14.231012 ] } },
{ "type": "Feature", "properties": { "PHCode_Mun": "042114000", "Mun_Name": "MENDEZ (MENDEZ-NUÑEZ)" }, "geometry": { "type": "Point", "coordinates": [ 120.898429, 14.130374 ] } },
{ "type": "Feature", "properties": { "PHCode_Mun": "042115000", "Mun_Name": "NAIC" }, "geometry": { "type": "Point", "coordinates": [ 120.794711, 14.292917 ] } },
{ "type": "Feature", "properties": { "PHCode_Mun": "042116000", "Mun_Name": "NOVELETA" }, "geometry": { "type": "Point", "coordinates": [ 120.880667, 14.435556 ] } },
{ "type": "Feature", "properties": { "PHCode_Mun": "042117000", "Mun_Name": "ROSARIO" }, "geometry": { "type": "Point", "coordinates": [ 120.863444, 14.41361 ] } },
{ "type": "Feature", "properties": { "PHCode_Mun": "042118000", "Mun_Name": "SILANG" }, "geometry": { "type": "Point", "coordinates": [ 120.987748, 14.21459 ] } },
{ "type": "Feature", "properties": { "PHCode_Mun": "042119000", "Mun_Name": "TAGAYTAY CITY" }, "geometry": { "type": "Point", "coordinates": [ 120.954955, 14.116106 ] } },
{ "type": "Feature", "properties": { "PHCode_Mun": "042120000", "Mun_Name": "TANZA" }, "geometry": { "type": "Point", "coordinates": [ 120.837048, 14.348106 ] } },
{ "type": "Feature", "properties": { "PHCode_Mun": "042121000", "Mun_Name": "TERNATE" }, "geometry": { "type": "Point", "coordinates": [ 120.67422, 14.263701 ] } },
{ "type": "Feature", "properties": { "PHCode_Mun": "042122000", "Mun_Name": "TRECE MARTIRES CITY (Capital)" }, "geometry": { "type": "Point", "coordinates": [ 120.869439, 14.276309 ] } },
{ "type": "Feature", "properties": { "PHCode_Mun": "042123000", "Mun_Name": "GEN. MARIANO ALVAREZ" }, "geometry": { "type": "Point", "coordinates": [ 121.014469, 14.31016 ] } },
{ "type": "Feature", "properties": { "PHCode_Mun": "043401000", "Mun_Name": "ALAMINOS" }, "geometry": { "type": "Point", "coordinates": [ 121.247268, 14.043154 ] } },
{ "type": "Feature", "properties": { "PHCode_Mun": "043402000", "Mun_Name": "BAY" }, "geometry": { "type": "Point", "coordinates": [ 121.261154, 14.144616 ] } },
{ "type": "Feature", "properties": { "PHCode_Mun": "043403000", "Mun_Name": "CITY OF BIÑAN" }, "geometry": { "type": "Point", "coordinates": [ 121.069209, 14.307132 ] } },
{ "type": "Feature", "properties": { "PHCode_Mun": "043404000", "Mun_Name": "CABUYAO CITY" }, "geometry": { "type": "Point", "coordinates": [ 121.111409, 14.239052 ] } },
{ "type": "Feature", "properties": { "PHCode_Mun": "043405000", "Mun_Name": "CITY OF CALAMBA" }, "geometry": { "type": "Point", "coordinates": [ 121.12031, 14.187204 ] } },
{ "type": "Feature", "properties": { "PHCode_Mun": "043406000", "Mun_Name": "CALAUAN" }, "geometry": { "type": "Point", "coordinates": [ 121.296802, 14.133049 ] } },
{ "type": "Feature", "properties": { "PHCode_Mun": "043407000", "Mun_Name": "CAVINTI" }, "geometry": { "type": "Point", "coordinates": [ 121.552953, 14.246092 ] } },
{ "type": "Feature", "properties": { "PHCode_Mun": "043408000", "Mun_Name": "FAMY" }, "geometry": { "type": "Point", "coordinates": [ 121.474238, 14.481304 ] } },
{ "type": "Feature", "properties": { "PHCode_Mun": "043409000", "Mun_Name": "KALAYAAN" }, "geometry": { "type": "Point", "coordinates": [ 121.531974, 14.333053 ] } },
{ "type": "Feature", "properties": { "PHCode_Mun": "043410000", "Mun_Name": "LILIW" }, "geometry": { "type": "Point", "coordinates": [ 121.436476, 14.141624 ] } },
{ "type": "Feature", "properties": { "PHCode_Mun": "043411000", "Mun_Name": "LOS BAÑOS" }, "geometry": { "type": "Point", "coordinates": [ 121.2244, 14.153232 ] } },
{ "type": "Feature", "properties": { "PHCode_Mun": "043412000", "Mun_Name": "LUISIANA" }, "geometry": { "type": "Point", "coordinates": [ 121.527825, 14.188165 ] } },
{ "type": "Feature", "properties": { "PHCode_Mun": "043413000", "Mun_Name": "LUMBAN" }, "geometry": { "type": "Point", "coordinates": [ 121.51563, 14.298301 ] } },
{ "type": "Feature", "properties": { "PHCode_Mun": "043414000", "Mun_Name": "MABITAC" }, "geometry": { "type": "Point", "coordinates": [ 121.402183, 14.429761 ] } },
{ "type": "Feature", "properties": { "PHCode_Mun": "043415000", "Mun_Name": "MAGDALENA" }, "geometry": { "type": "Point", "coordinates": [ 121.435923, 14.206693 ] } },
{ "type": "Feature", "properties": { "PHCode_Mun": "043416000", "Mun_Name": "MAJAYJAY" }, "geometry": { "type": "Point", "coordinates": [ 121.48036, 14.139264 ] } },
{ "type": "Feature", "properties": { "PHCode_Mun": "043417000", "Mun_Name": "NAGCARLAN" }, "geometry": { "type": "Point", "coordinates": [ 121.40443, 14.134178 ] } },
{ "type": "Feature", "properties": { "PHCode_Mun": "043418000", "Mun_Name": "PAETE" }, "geometry": { "type": "Point", "coordinates": [ 121.534912, 14.374724 ] } },
{ "type": "Feature", "properties": { "PHCode_Mun": "043419000", "Mun_Name": "PAGSANJAN" }, "geometry": { "type": "Point", "coordinates": [ 121.448729, 14.252027 ] } },
{ "type": "Feature", "properties": { "PHCode_Mun": "043420000", "Mun_Name": "PAKIL" }, "geometry": { "type": "Point", "coordinates": [ 121.475635, 14.382477 ] } },
{ "type": "Feature", "properties": { "PHCode_Mun": "043421000", "Mun_Name": "PANGIL" }, "geometry": { "type": "Point", "coordinates": [ 121.478881, 14.417003 ] } },
{ "type": "Feature", "properties": { "PHCode_Mun": "043422000", "Mun_Name": "PILA" }, "geometry": { "type": "Point", "coordinates": [ 121.36528, 14.231019 ] } },
{ "type": "Feature", "properties": { "PHCode_Mun": "043423000", "Mun_Name": "RIZAL" }, "geometry": { "type": "Point", "coordinates": [ 121.403373, 14.095159 ] } },
{ "type": "Feature", "properties": { "PHCode_Mun": "043424000", "Mun_Name": "SAN PABLO CITY" }, "geometry": { "type": "Point", "coordinates": [ 121.330205, 14.049977 ] } },
{ "type": "Feature", "properties": { "PHCode_Mun": "043425000", "Mun_Name": "CITY OF SAN PEDRO" }, "geometry": { "type": "Point", "coordinates": [ 121.040352, 14.34918 ] } },
{ "type": "Feature", "properties": { "PHCode_Mun": "043426000", "Mun_Name": "SANTA CRUZ (Capital)" }, "geometry": { "type": "Point", "coordinates": [ 121.401631, 14.260671 ] } },
{ "type": "Feature", "properties": { "PHCode_Mun": "043427000", "Mun_Name": "SANTA MARIA" }, "geometry": { "type": "Point", "coordinates": [ 121.426079, 14.510776 ] } },
{ "type": "Feature", "properties": { "PHCode_Mun": "043428000", "Mun_Name": "CITY OF SANTA ROSA" }, "geometry": { "type": "Point", "coordinates": [ 121.091706, 14.271948 ] } },
{ "type": "Feature", "properties": { "PHCode_Mun": "043429000", "Mun_Name": "SINILOAN" }, "geometry": { "type": "Point", "coordinates": [ 121.485395, 14.461058 ] } },
{ "type": "Feature", "properties": { "PHCode_Mun": "043430000", "Mun_Name": "VICTORIA" }, "geometry": { "type": "Point", "coordinates": [ 121.334198, 14.205331 ] } },
{ "type": "Feature", "properties": { "PHCode_Mun": "045601000", "Mun_Name": "AGDANGAN" }, "geometry": { "type": "Point", "coordinates": [ 121.92382, 13.883835 ] } },
{ "type": "Feature", "properties": { "PHCode_Mun": "045602000", "Mun_Name": "ALABAT" }, "geometry": { "type": "Point", "coordinates": [ 122.028757, 14.118318 ] } },
{ "type": "Feature", "properties": { "PHCode_Mun": "045603000", "Mun_Name": "ATIMONAN" }, "geometry": { "type": "Point", "coordinates": [ 121.889154, 13.984975 ] } },
{ "type": "Feature", "properties": { "PHCode_Mun": "045605000", "Mun_Name": "BUENAVISTA" }, "geometry": { "type": "Point", "coordinates": [ 122.432359, 13.739647 ] } },
{ "type": "Feature", "properties": { "PHCode_Mun": "045606000", "Mun_Name": "BURDEOS" }, "geometry": { "type": "Point", "coordinates": [ 121.981942, 14.91569 ] } },
{ "type": "Feature", "properties": { "PHCode_Mun": "045607000", "Mun_Name": "CALAUAG" }, "geometry": { "type": "Point", "coordinates": [ 122.279999, 14.054455 ] } },
{ "type": "Feature", "properties": { "PHCode_Mun": "045608000", "Mun_Name": "CANDELARIA" }, "geometry": { "type": "Point", "coordinates": [ 121.427212, 13.935416 ] } },
{ "type": "Feature", "properties": { "PHCode_Mun": "045610000", "Mun_Name": "CATANAUAN" }, "geometry": { "type": "Point", "coordinates": [ 122.316308, 13.644005 ] } },
{ "type": "Feature", "properties": { "PHCode_Mun": "045615000", "Mun_Name": "DOLORES" }, "geometry": { "type": "Point", "coordinates": [ 121.406277, 14.013158 ] } },
{ "type": "Feature", "properties": { "PHCode_Mun": "045616000", "Mun_Name": "GENERAL LUNA" }, "geometry": { "type": "Point", "coordinates": [ 122.223938, 13.697003 ] } },
{ "type": "Feature", "properties": { "PHCode_Mun": "045617000", "Mun_Name": "GENERAL NAKAR" }, "geometry": { "type": "Point", "coordinates": [ 121.461899, 14.882149 ] } },
{ "type": "Feature", "properties": { "PHCode_Mun": "045618000", "Mun_Name": "GUINAYANGAN" }, "geometry": { "type": "Point", "coordinates": [ 122.425932, 13.908204 ] } },
{ "type": "Feature", "properties": { "PHCode_Mun": "045619000", "Mun_Name": "GUMACA" }, "geometry": { "type": "Point", "coordinates": [ 122.123702, 13.87675 ] } },
{ "type": "Feature", "properties": { "PHCode_Mun": "045620000", "Mun_Name": "INFANTA" }, "geometry": { "type": "Point", "coordinates": [ 121.571813, 14.67926 ] } },
{ "type": "Feature", "properties": { "PHCode_Mun": "045621000", "Mun_Name": "JOMALIG" }, "geometry": { "type": "Point", "coordinates": [ 122.376378, 14.700505 ] } },
{ "type": "Feature", "properties": { "PHCode_Mun": "045622000", "Mun_Name": "LOPEZ" }, "geometry": { "type": "Point", "coordinates": [ 122.297097, 13.836568 ] } },
{ "type": "Feature", "properties": { "PHCode_Mun": "045623000", "Mun_Name": "LUCBAN" }, "geometry": { "type": "Point", "coordinates": [ 121.569573, 14.110807 ] } },
{ "type": "Feature", "properties": { "PHCode_Mun": "045624000", "Mun_Name": "LUCENA CITY (Capital)" }, "geometry": { "type": "Point", "coordinates": [ 121.615486, 13.936754 ] } },
{ "type": "Feature", "properties": { "PHCode_Mun": "045625000", "Mun_Name": "MACALELON" }, "geometry": { "type": "Point", "coordinates": [ 122.185791, 13.760243 ] } },
{ "type": "Feature", "properties": { "PHCode_Mun": "045627000", "Mun_Name": "MAUBAN" }, "geometry": { "type": "Point", "coordinates": [ 121.705096, 14.231796 ] } },
{ "type": "Feature", "properties": { "PHCode_Mun": "045628000", "Mun_Name": "MULANAY" }, "geometry": { "type": "Point", "coordinates": [ 122.457547, 13.525475 ] } },
{ "type": "Feature", "properties": { "PHCode_Mun": "045629000", "Mun_Name": "PADRE BURGOS" }, "geometry": { "type": "Point", "coordinates": [ 121.849016, 13.927071 ] } },
{ "type": "Feature", "properties": { "PHCode_Mun": "045630000", "Mun_Name": "PAGBILAO" }, "geometry": { "type": "Point", "coordinates": [ 121.728478, 13.982056 ] } },
{ "type": "Feature", "properties": { "PHCode_Mun": "045631000", "Mun_Name": "PANUKULAN" }, "geometry": { "type": "Point", "coordinates": [ 121.879854, 14.972521 ] } },
{ "type": "Feature", "properties": { "PHCode_Mun": "045632000", "Mun_Name": "PATNANUNGAN" }, "geometry": { "type": "Point", "coordinates": [ 122.186456, 14.795839 ] } },
{ "type": "Feature", "properties": { "PHCode_Mun": "045633000", "Mun_Name": "PEREZ" }, "geometry": { "type": "Point", "coordinates": [ 121.95839, 14.178167 ] } },
{ "type": "Feature", "properties": { "PHCode_Mun": "045634000", "Mun_Name": "PITOGO" }, "geometry": { "type": "Point", "coordinates": [ 122.091398, 13.809698 ] } },
{ "type": "Feature", "properties": { "PHCode_Mun": "045635000", "Mun_Name": "PLARIDEL" }, "geometry": { "type": "Point", "coordinates": [ 122.012981, 13.941277 ] } },
{ "type": "Feature", "properties": { "PHCode_Mun": "045636000", "Mun_Name": "POLILLO" }, "geometry": { "type": "Point", "coordinates": [ 121.953506, 14.73803 ] } },
{ "type": "Feature", "properties": { "PHCode_Mun": "045637000", "Mun_Name": "QUEZON" }, "geometry": { "type": "Point", "coordinates": [ 122.123871, 14.055316 ] } },
{ "type": "Feature", "properties": { "PHCode_Mun": "045638000", "Mun_Name": "REAL" }, "geometry": { "type": "Point", "coordinates": [ 121.582071, 14.512804 ] } },
{ "type": "Feature", "properties": { "PHCode_Mun": "045639000", "Mun_Name": "SAMPALOC" }, "geometry": { "type": "Point", "coordinates": [ 121.633151, 14.183935 ] } },
{ "type": "Feature", "properties": { "PHCode_Mun": "045640000", "Mun_Name": "SAN ANDRES" }, "geometry": { "type": "Point", "coordinates": [ 122.64412, 13.340336 ] } },
{ "type": "Feature", "properties": { "PHCode_Mun": "045641000", "Mun_Name": "SAN ANTONIO" }, "geometry": { "type": "Point", "coordinates": [ 121.295133, 13.900504 ] } },
{ "type": "Feature", "properties": { "PHCode_Mun": "045642000", "Mun_Name": "SAN FRANCISCO (AURORA)" }, "geometry": { "type": "Point", "coordinates": [ 122.571776, 13.294848 ] } },
{ "type": "Feature", "properties": { "PHCode_Mun": "045644000", "Mun_Name": "SAN NARCISO" }, "geometry": { "type": "Point", "coordinates": [ 122.533818, 13.555574 ] } },
{ "type": "Feature", "properties": { "PHCode_Mun": "045645000", "Mun_Name": "SARIAYA" }, "geometry": { "type": "Point", "coordinates": [ 121.501423, 13.928884 ] } },
{ "type": "Feature", "properties": { "PHCode_Mun": "045646000", "Mun_Name": "TAGKAWAYAN" }, "geometry": { "type": "Point", "coordinates": [ 122.538432, 14.027009 ] } },
{ "type": "Feature", "properties": { "PHCode_Mun": "045647000", "Mun_Name": "CITY OF TAYABAS" }, "geometry": { "type": "Point", "coordinates": [ 121.615361, 14.037058 ] } },
{ "type": "Feature", "properties": { "PHCode_Mun": "045648000", "Mun_Name": "TIAONG" }, "geometry": { "type": "Point", "coordinates": [ 121.334145, 13.939144 ] } },
{ "type": "Feature", "properties": { "PHCode_Mun": "045649000", "Mun_Name": "UNISAN" }, "geometry": { "type": "Point", "coordinates": [ 121.999805, 13.861296 ] } },
{ "type": "Feature", "properties": { "PHCode_Mun": "045801000", "Mun_Name": "ANGONO" }, "geometry": { "type": "Point", "coordinates": [ 121.169114, 14.539506 ] } },
{ "type": "Feature", "properties": { "PHCode_Mun": "045802000", "Mun_Name": "CITY OF ANTIPOLO" }, "geometry": { "type": "Point", "coordinates": [ 121.236305, 14.655886 ] } },
{ "type": "Feature", "properties": { "PHCode_Mun": "045803000", "Mun_Name": "BARAS" }, "geometry": { "type": "Point", "coordinates": [ 121.276977, 14.575061 ] } },
{ "type": "Feature", "properties": { "PHCode_Mun": "045804000", "Mun_Name": "BINANGONAN" }, "geometry": { "type": "Point", "coordinates": [ 121.202317, 14.457106 ] } },
{ "type": "Feature", "properties": { "PHCode_Mun": "045805000", "Mun_Name": "CAINTA" }, "geometry": { "type": "Point", "coordinates": [ 121.11684, 14.587371 ] } },
{ "type": "Feature", "properties": { "PHCode_Mun": "045806000", "Mun_Name": "CARDONA" }, "geometry": { "type": "Point", "coordinates": [ 121.226848, 14.407728 ] } },
{ "type": "Feature", "properties": { "PHCode_Mun": "045807000", "Mun_Name": "JALA-JALA" }, "geometry": { "type": "Point", "coordinates": [ 121.336677, 14.338886 ] } },
{ "type": "Feature", "properties": { "PHCode_Mun": "045808000", "Mun_Name": "RODRIGUEZ (MONTALBAN)" }, "geometry": { "type": "Point", "coordinates": [ 121.218482, 14.77272 ] } },
{ "type": "Feature", "properties": { "PHCode_Mun": "045809000", "Mun_Name": "MORONG" }, "geometry": { "type": "Point", "coordinates": [ 121.238847, 14.533794 ] } },
{ "type": "Feature", "properties": { "PHCode_Mun": "045810000", "Mun_Name": "PILILLA" }, "geometry": { "type": "Point", "coordinates": [ 121.343299, 14.45388 ] } },
{ "type": "Feature", "properties": { "PHCode_Mun": "045811000", "Mun_Name": "SAN MATEO" }, "geometry": { "type": "Point", "coordinates": [ 121.161005, 14.682771 ] } },
{ "type": "Feature", "properties": { "PHCode_Mun": "045812000", "Mun_Name": "TANAY" }, "geometry": { "type": "Point", "coordinates": [ 121.359284, 14.603882 ] } },
{ "type": "Feature", "properties": { "PHCode_Mun": "045813000", "Mun_Name": "TAYTAY" }, "geometry": { "type": "Point", "coordinates": [ 121.13449, 14.555014 ] } },
{ "type": "Feature", "properties": { "PHCode_Mun": "045814000", "Mun_Name": "TERESA" }, "geometry": { "type": "Point", "coordinates": [ 121.219447, 14.561145 ] } },
{ "type": "Feature", "properties": { "PHCode_Mun": "050501000", "Mun_Name": "BACACAY" }, "geometry": { "type": "Point", "coordinates": [ 123.857211, 13.284665 ] } },
{ "type": "Feature", "properties": { "PHCode_Mun": "050502000", "Mun_Name": "CAMALIG" }, "geometry": { "type": "Point", "coordinates": [ 123.637688, 13.13994 ] } },
{ "type": "Feature", "properties": { "PHCode_Mun": "050503000", "Mun_Name": "DARAGA (LOCSIN)" }, "geometry": { "type": "Point", "coordinates": [ 123.688865, 13.114826 ] } },
{ "type": "Feature", "properties": { "PHCode_Mun": "050504000", "Mun_Name": "GUINOBATAN" }, "geometry": { "type": "Point", "coordinates": [ 123.576805, 13.172745 ] } },
{ "type": "Feature", "properties": { "PHCode_Mun": "050505000", "Mun_Name": "JOVELLAR" }, "geometry": { "type": "Point", "coordinates": [ 123.582233, 13.049078 ] } },
{ "type": "Feature", "properties": { "PHCode_Mun": "050506000", "Mun_Name": "LEGAZPI CITY (Capital)" }, "geometry": { "type": "Point", "coordinates": [ 123.753178, 13.099339 ] } },
{ "type": "Feature", "properties": { "PHCode_Mun": "050507000", "Mun_Name": "LIBON" }, "geometry": { "type": "Point", "coordinates": [ 123.372574, 13.248669 ] } },
{ "type": "Feature", "properties": { "PHCode_Mun": "050508000", "Mun_Name": "CITY OF LIGAO" }, "geometry": { "type": "Point", "coordinates": [ 123.497205, 13.18373 ] } },
{ "type": "Feature", "properties": { "PHCode_Mun": "050509000", "Mun_Name": "MALILIPOT" }, "geometry": { "type": "Point", "coordinates": [ 123.734129, 13.303626 ] } },
{ "type": "Feature", "properties": { "PHCode_Mun": "050510000", "Mun_Name": "MALINAO" }, "geometry": { "type": "Point", "coordinates": [ 123.651222, 13.38348 ] } },
{ "type": "Feature", "properties": { "PHCode_Mun": "050511000", "Mun_Name": "MANITO" }, "geometry": { "type": "Point", "coordinates": [ 123.878059, 13.085715 ] } },
{ "type": "Feature", "properties": { "PHCode_Mun": "050512000", "Mun_Name": "OAS" }, "geometry": { "type": "Point", "coordinates": [ 123.403453, 13.166591 ] } },
{ "type": "Feature", "properties": { "PHCode_Mun": "050513000", "Mun_Name": "PIO DURAN" }, "geometry": { "type": "Point", "coordinates": [ 123.465504, 13.06264 ] } },
{ "type": "Feature", "properties": { "PHCode_Mun": "050514000", "Mun_Name": "POLANGUI" }, "geometry": { "type": "Point", "coordinates": [ 123.496927, 13.324198 ] } },
{ "type": "Feature", "properties": { "PHCode_Mun": "050515000", "Mun_Name": "RAPU-RAPU" }, "geometry": { "type": "Point", "coordinates": [ 124.051208, 13.239077 ] } },
{ "type": "Feature", "properties": { "PHCode_Mun": "050516000", "Mun_Name": "SANTO DOMINGO (LIBOG)" }, "geometry": { "type": "Point", "coordinates": [ 123.759187, 13.243747 ] } },
{ "type": "Feature", "properties": { "PHCode_Mun": "050517000", "Mun_Name": "CITY OF TABACO" }, "geometry": { "type": "Point", "coordinates": [ 123.695578, 13.332932 ] } },
{ "type": "Feature", "properties": { "PHCode_Mun": "050518000", "Mun_Name": "TIWI" }, "geometry": { "type": "Point", "coordinates": [ 123.615667, 13.461921 ] } },
{ "type": "Feature", "properties": { "PHCode_Mun": "051601000", "Mun_Name": "BASUD" }, "geometry": { "type": "Point", "coordinates": [ 122.975226, 13.989568 ] } },
{ "type": "Feature", "properties": { "PHCode_Mun": "051602000", "Mun_Name": "CAPALONGA" }, "geometry": { "type": "Point", "coordinates": [ 122.494055, 14.26806 ] } },
{ "type": "Feature", "properties": { "PHCode_Mun": "051603000", "Mun_Name": "DAET (Capital)" }, "geometry": { "type": "Point", "coordinates": [ 122.948734, 14.106274 ] } },
{ "type": "Feature", "properties": { "PHCode_Mun": "051604000", "Mun_Name": "SAN LORENZO RUIZ (IMELDA)" }, "geometry": { "type": "Point", "coordinates": [ 122.867853, 14.015009 ] } },
{ "type": "Feature", "properties": { "PHCode_Mun": "051605000", "Mun_Name": "JOSE PANGANIBAN" }, "geometry": { "type": "Point", "coordinates": [ 122.654158, 14.262723 ] } },
{ "type": "Feature", "properties": { "PHCode_Mun": "051606000", "Mun_Name": "LABO" }, "geometry": { "type": "Point", "coordinates": [ 122.690064, 14.135764 ] } },
{ "type": "Feature", "properties": { "PHCode_Mun": "051607000", "Mun_Name": "MERCEDES" }, "geometry": { "type": "Point", "coordinates": [ 123.049221, 13.973657 ] } },
{ "type": "Feature", "properties": { "PHCode_Mun": "051608000", "Mun_Name": "PARACALE" }, "geometry": { "type": "Point", "coordinates": [ 122.774435, 14.25446 ] } },
{ "type": "Feature", "properties": { "PHCode_Mun": "051609000", "Mun_Name": "SAN VICENTE" }, "geometry": { "type": "Point", "coordinates": [ 122.861054, 14.08051 ] } },
{ "type": "Feature", "properties": { "PHCode_Mun": "051610000", "Mun_Name": "SANTA ELENA" }, "geometry": { "type": "Point", "coordinates": [ 122.386029, 14.150515 ] } },
{ "type": "Feature", "properties": { "PHCode_Mun": "051611000", "Mun_Name": "TALISAY" }, "geometry": { "type": "Point", "coordinates": [ 122.927142, 14.140639 ] } },
{ "type": "Feature", "properties": { "PHCode_Mun": "051612000", "Mun_Name": "VINZONS" }, "geometry": { "type": "Point", "coordinates": [ 122.894869, 14.211649 ] } },
{ "type": "Feature", "properties": { "PHCode_Mun": "051701000", "Mun_Name": "BAAO" }, "geometry": { "type": "Point", "coordinates": [ 123.366723, 13.48195 ] } },
{ "type": "Feature", "properties": { "PHCode_Mun": "051702000", "Mun_Name": "BALATAN" }, "geometry": { "type": "Point", "coordinates": [ 123.25252, 13.348242 ] } },
{ "type": "Feature", "properties": { "PHCode_Mun": "051703000", "Mun_Name": "BATO" }, "geometry": { "type": "Point", "coordinates": [ 123.312911, 13.319981 ] } },
{ "type": "Feature", "properties": { "PHCode_Mun": "051704000", "Mun_Name": "BOMBON" }, "geometry": { "type": "Point", "coordinates": [ 123.206629, 13.683506 ] } },
{ "type": "Feature", "properties": { "PHCode_Mun": "051705000", "Mun_Name": "BUHI" }, "geometry": { "type": "Point", "coordinates": [ 123.518477, 13.427692 ] } },
{ "type": "Feature", "properties": { "PHCode_Mun": "051706000", "Mun_Name": "BULA" }, "geometry": { "type": "Point", "coordinates": [ 123.261915, 13.455571 ] } },
{ "type": "Feature", "properties": { "PHCode_Mun": "051707000", "Mun_Name": "CABUSAO" }, "geometry": { "type": "Point", "coordinates": [ 123.074523, 13.741076 ] } },
{ "type": "Feature", "properties": { "PHCode_Mun": "051708000", "Mun_Name": "CALABANGA" }, "geometry": { "type": "Point", "coordinates": [ 123.269581, 13.709568 ] } },
{ "type": "Feature", "properties": { "PHCode_Mun": "051709000", "Mun_Name": "CAMALIGAN" }, "geometry": { "type": "Point", "coordinates": [ 123.159064, 13.623516 ] } },
{ "type": "Feature", "properties": { "PHCode_Mun": "051710000", "Mun_Name": "CANAMAN" }, "geometry": { "type": "Point", "coordinates": [ 123.13299, 13.64434 ] } },
{ "type": "Feature", "properties": { "PHCode_Mun": "051711000", "Mun_Name": "CARAMOAN" }, "geometry": { "type": "Point", "coordinates": [ 123.83263, 13.797686 ] } },
{ "type": "Feature", "properties": { "PHCode_Mun": "051712000", "Mun_Name": "DEL GALLEGO" }, "geometry": { "type": "Point", "coordinates": [ 122.682131, 13.948772 ] } },
{ "type": "Feature", "properties": { "PHCode_Mun": "051713000", "Mun_Name": "GAINZA" }, "geometry": { "type": "Point", "coordinates": [ 123.133985, 13.602482 ] } },
{ "type": "Feature", "properties": { "PHCode_Mun": "051714000", "Mun_Name": "GARCHITORENA" }, "geometry": { "type": "Point", "coordinates": [ 123.634964, 13.865698 ] } },
{ "type": "Feature", "properties": { "PHCode_Mun": "051715000", "Mun_Name": "GOA" }, "geometry": { "type": "Point", "coordinates": [ 123.432518, 13.730482 ] } },
{ "type": "Feature", "properties": { "PHCode_Mun": "051716000", "Mun_Name": "IRIGA CITY" }, "geometry": { "type": "Point", "coordinates": [ 123.437302, 13.451265 ] } },
{ "type": "Feature", "properties": { "PHCode_Mun": "051717000", "Mun_Name": "LAGONOY" }, "geometry": { "type": "Point", "coordinates": [ 123.514789, 13.822396 ] } },
{ "type": "Feature", "properties": { "PHCode_Mun": "051718000", "Mun_Name": "LIBMANAN" }, "geometry": { "type": "Point", "coordinates": [ 122.978563, 13.664766 ] } },
{ "type": "Feature", "properties": { "PHCode_Mun": "051719000", "Mun_Name": "LUPI" }, "geometry": { "type": "Point", "coordinates": [ 122.889707, 13.8532 ] } },
{ "type": "Feature", "properties": { "PHCode_Mun": "051720000", "Mun_Name": "MAGARAO" }, "geometry": { "type": "Point", "coordinates": [ 123.16312, 13.671895 ] } },
{ "type": "Feature", "properties": { "PHCode_Mun": "051721000", "Mun_Name": "MILAOR" }, "geometry": { "type": "Point", "coordinates": [ 123.193679, 13.595131 ] } },
{ "type": "Feature", "properties": { "PHCode_Mun": "051722000", "Mun_Name": "MINALABAC" }, "geometry": { "type": "Point", "coordinates": [ 123.198142, 13.515329 ] } },
{ "type": "Feature", "properties": { "PHCode_Mun": "051723000", "Mun_Name": "NABUA" }, "geometry": { "type": "Point", "coordinates": [ 123.340548, 13.395536 ] } },
{ "type": "Feature", "properties": { "PHCode_Mun": "051724000", "Mun_Name": "NAGA CITY" }, "geometry": { "type": "Point", "coordinates": [ 123.258672, 13.643031 ] } },
{ "type": "Feature", "properties": { "PHCode_Mun": "051725000", "Mun_Name": "OCAMPO" }, "geometry": { "type": "Point", "coordinates": [ 123.383371, 13.581037 ] } },
{ "type": "Feature", "properties": { "PHCode_Mun": "051726000", "Mun_Name": "PAMPLONA" }, "geometry": { "type": "Point", "coordinates": [ 123.075671, 13.58855 ] } },
{ "type": "Feature", "properties": { "PHCode_Mun": "051727000", "Mun_Name": "PASACAO" }, "geometry": { "type": "Point", "coordinates": [ 122.992566, 13.555023 ] } },
{ "type": "Feature", "properties": { "PHCode_Mun": "051728000", "Mun_Name": "PILI (Capital)" }, "geometry": { "type": "Point", "coordinates": [ 123.294868, 13.588524 ] } },
{ "type": "Feature", "properties": { "PHCode_Mun": "051729000", "Mun_Name": "PRESENTACION (PARUBCAN)" }, "geometry": { "type": "Point", "coordinates": [ 123.727077, 13.746732 ] } },
{ "type": "Feature", "properties": { "PHCode_Mun": "051730000", "Mun_Name": "RAGAY" }, "geometry": { "type": "Point", "coordinates": [ 122.775602, 13.865396 ] } },
{ "type": "Feature", "properties": { "PHCode_Mun": "051731000", "Mun_Name": "SAGÑAY" }, "geometry": { "type": "Point", "coordinates": [ 123.517358, 13.560812 ] } },
{ "type": "Feature", "properties": { "PHCode_Mun": "051732000", "Mun_Name": "SAN FERNANDO" }, "geometry": { "type": "Point", "coordinates": [ 123.126344, 13.524013 ] } },
{ "type": "Feature", "properties": { "PHCode_Mun": "051733000", "Mun_Name": "SAN JOSE" }, "geometry": { "type": "Point", "coordinates": [ 123.553297, 13.692327 ] } },
{ "type": "Feature", "properties": { "PHCode_Mun": "051734000", "Mun_Name": "SIPOCOT" }, "geometry": { "type": "Point", "coordinates": [ 122.960325, 13.794185 ] } },
{ "type": "Feature", "properties": { "PHCode_Mun": "051735000", "Mun_Name": "SIRUMA" }, "geometry": { "type": "Point", "coordinates": [ 123.296623, 14.015843 ] } },
{ "type": "Feature", "properties": { "PHCode_Mun": "051736000", "Mun_Name": "TIGAON" }, "geometry": { "type": "Point", "coordinates": [ 123.467972, 13.625573 ] } },
{ "type": "Feature", "properties": { "PHCode_Mun": "051737000", "Mun_Name": "TINAMBAC" }, "geometry": { "type": "Point", "coordinates": [ 123.359256, 13.866896 ] } },
{ "type": "Feature", "properties": { "PHCode_Mun": "052001000", "Mun_Name": "BAGAMANOC" }, "geometry": { "type": "Point", "coordinates": [ 124.265676, 13.961622 ] } },
{ "type": "Feature", "properties": { "PHCode_Mun": "052002000", "Mun_Name": "BARAS" }, "geometry": { "type": "Point", "coordinates": [ 124.364364, 13.694139 ] } },
{ "type": "Feature", "properties": { "PHCode_Mun": "052003000", "Mun_Name": "BATO" }, "geometry": { "type": "Point", "coordinates": [ 124.309446, 13.604589 ] } },
{ "type": "Feature", "properties": { "PHCode_Mun": "052004000", "Mun_Name": "CARAMORAN" }, "geometry": { "type": "Point", "coordinates": [ 124.181293, 13.872569 ] } },
{ "type": "Feature", "properties": { "PHCode_Mun": "052005000", "Mun_Name": "GIGMOTO" }, "geometry": { "type": "Point", "coordinates": [ 124.358843, 13.785413 ] } },
{ "type": "Feature", "properties": { "PHCode_Mun": "052006000", "Mun_Name": "PANDAN" }, "geometry": { "type": "Point", "coordinates": [ 124.196403, 14.03088 ] } },
{ "type": "Feature", "properties": { "PHCode_Mun": "052007000", "Mun_Name": "PANGANIBAN (PAYO)" }, "geometry": { "type": "Point", "coordinates": [ 124.299492, 13.909577 ] } },
{ "type": "Feature", "properties": { "PHCode_Mun": "052008000", "Mun_Name": "SAN ANDRES (CALOLBON)" }, "geometry": { "type": "Point", "coordinates": [ 124.109971, 13.662246 ] } },
{ "type": "Feature", "properties": { "PHCode_Mun": "052009000", "Mun_Name": "SAN MIGUEL" }, "geometry": { "type": "Point", "coordinates": [ 124.25581, 13.704026 ] } },
{ "type": "Feature", "properties": { "PHCode_Mun": "052010000", "Mun_Name": "VIGA" }, "geometry": { "type": "Point", "coordinates": [ 124.309541, 13.846509 ] } },
{ "type": "Feature", "properties": { "PHCode_Mun": "052011000", "Mun_Name": "VIRAC (Capital)" }, "geometry": { "type": "Point", "coordinates": [ 124.194612, 13.601343 ] } },
{ "type": "Feature", "properties": { "PHCode_Mun": "054101000", "Mun_Name": "AROROY" }, "geometry": { "type": "Point", "coordinates": [ 123.341697, 12.433299 ] } },
{ "type": "Feature", "properties": { "PHCode_Mun": "054102000", "Mun_Name": "BALENO" }, "geometry": { "type": "Point", "coordinates": [ 123.479672, 12.423935 ] } },
{ "type": "Feature", "properties": { "PHCode_Mun": "054103000", "Mun_Name": "BALUD" }, "geometry": { "type": "Point", "coordinates": [ 123.232685, 12.021474 ] } },
{ "type": "Feature", "properties": { "PHCode_Mun": "054104000", "Mun_Name": "BATUAN" }, "geometry": { "type": "Point", "coordinates": [ 123.7626, 12.399996 ] } },
{ "type": "Feature", "properties": { "PHCode_Mun": "054105000", "Mun_Name": "CATAINGAN" }, "geometry": { "type": "Point", "coordinates": [ 123.956481, 12.001467 ] } },
{ "type": "Feature", "properties": { "PHCode_Mun": "054106000", "Mun_Name": "CAWAYAN" }, "geometry": { "type": "Point", "coordinates": [ 123.757253, 12.018731 ] } },
{ "type": "Feature", "properties": { "PHCode_Mun": "054107000", "Mun_Name": "CLAVERIA" }, "geometry": { "type": "Point", "coordinates": [ 123.221908, 12.867602 ] } },
{ "type": "Feature", "properties": { "PHCode_Mun": "054108000", "Mun_Name": "DIMASALANG" }, "geometry": { "type": "Point", "coordinates": [ 123.851788, 12.153941 ] } },
{ "type": "Feature", "properties": { "PHCode_Mun": "054109000", "Mun_Name": "ESPERANZA" }, "geometry": { "type": "Point", "coordinates": [ 124.010113, 11.811619 ] } },
{ "type": "Feature", "properties": { "PHCode_Mun": "054110000", "Mun_Name": "MANDAON" }, "geometry": { "type": "Point", "coordinates": [ 123.310331, 12.225859 ] } },
{ "type": "Feature", "properties": { "PHCode_Mun": "054111000", "Mun_Name": "CITY OF MASBATE (Capital)" }, "geometry": { "type": "Point", "coordinates": [ 123.564123, 12.336905 ] } },
{ "type": "Feature", "properties": { "PHCode_Mun": "054112000", "Mun_Name": "MILAGROS" }, "geometry": { "type": "Point", "coordinates": [ 123.524088, 12.233649 ] } },
{ "type": "Feature", "properties": { "PHCode_Mun": "054113000", "Mun_Name": "MOBO" }, "geometry": { "type": "Point", "coordinates": [ 123.663655, 12.273908 ] } },
{ "type": "Feature", "properties": { "PHCode_Mun": "054114000", "Mun_Name": "MONREAL" }, "geometry": { "type": "Point", "coordinates": [ 123.638578, 12.629811 ] } },
{ "type": "Feature", "properties": { "PHCode_Mun": "054115000", "Mun_Name": "PALANAS" }, "geometry": { "type": "Point", "coordinates": [ 123.897701, 12.097525 ] } },
{ "type": "Feature", "properties": { "PHCode_Mun": "054116000", "Mun_Name": "PIO V. CORPUZ (LIMBUHAN)" }, "geometry": { "type": "Point", "coordinates": [ 124.032428, 11.856463 ] } },
{ "type": "Feature", "properties": { "PHCode_Mun": "054117000", "Mun_Name": "PLACER" }, "geometry": { "type": "Point", "coordinates": [ 123.892786, 11.92764 ] } },
{ "type": "Feature", "properties": { "PHCode_Mun": "054118000", "Mun_Name": "SAN FERNANDO" }, "geometry": { "type": "Point", "coordinates": [ 123.725203, 12.478746 ] } },
{ "type": "Feature", "properties": { "PHCode_Mun": "054119000", "Mun_Name": "SAN JACINTO" }, "geometry": { "type": "Point", "coordinates": [ 123.690908, 12.557483 ] } },
{ "type": "Feature", "properties": { "PHCode_Mun": "054120000", "Mun_Name": "SAN PASCUAL" }, "geometry": { "type": "Point", "coordinates": [ 123.027653, 13.058162 ] } },
{ "type": "Feature", "properties": { "PHCode_Mun": "054121000", "Mun_Name": "USON" }, "geometry": { "type": "Point", "coordinates": [ 123.759979, 12.171118 ] } },
{ "type": "Feature", "properties": { "PHCode_Mun": "056202000", "Mun_Name": "BARCELONA" }, "geometry": { "type": "Point", "coordinates": [ 124.115478, 12.832535 ] } },
{ "type": "Feature", "properties": { "PHCode_Mun": "056203000", "Mun_Name": "BULAN" },